City,Temperature F,Humidity %,Cloudiness %,Wind Speed mph,Latitude,Longitude,Date
broken hill,91.4,18.0,42.0,12.75,-31.97,141.45,Mon Dec  9 23:25:06 2019
douentza,57.54,19.0,0.0,4.25,15.01,-2.95,Mon Dec  9 23:25:06 2019
sitka,27.0,71.0,76.0,2.66,37.17,-99.65,Mon Dec  9 23:25:06 2019
carnarvon,66.16,52.0,85.0,6.11,-30.97,22.13,Mon Dec  9 23:25:06 2019
busselton,90.3,7.0,0.0,14.97,-33.64,115.35,Mon Dec  9 23:25:06 2019
provideniya,27.12,97.0,100.0,15.08,64.42,-173.23,Mon Dec  9 23:25:07 2019
lebu,62.6,82.0,75.0,12.75,8.96,38.73,Mon Dec  9 23:25:07 2019
atuona,79.92,65.0,99.0,8.25,-9.8,-139.03,Mon Dec  9 23:25:07 2019
souillac,34.41,100.0,20.0,3.36,45.6,-0.6,Mon Dec  9 23:25:07 2019
ushuaia,42.8,70.0,75.0,32.21,-54.81,-68.31,Mon Dec  9 23:25:07 2019
kathmandu,62.6,48.0,20.0,3.36,27.71,85.32,Mon Dec  9 23:23:44 2019
avera,60.8,95.0,75.0,6.93,33.19,-82.53,Mon Dec  9 23:25:08 2019
tsihombe,60.8,95.0,75.0,6.93,33.19,-82.53,Mon Dec  9 23:25:08 2019
barentsburg,60.8,95.0,75.0,6.93,33.19,-82.53,Mon Dec  9 23:25:08 2019
barrow,65.86,35.0,68.0,7.14,-38.31,-60.23,Mon Dec  9 23:25:09 2019
sao filipe,69.67,79.0,98.0,19.3,14.9,-24.5,Mon Dec  9 23:25:09 2019
nizhneyansk,69.67,79.0,98.0,19.3,14.9,-24.5,Mon Dec  9 23:25:09 2019
la ronge,-18.4,75.0,5.0,5.82,55.1,-105.3,Mon Dec  9 23:25:10 2019
rikitea,74.8,85.0,100.0,27.51,-23.12,-134.97,Mon Dec  9 23:25:10 2019
cherskiy,-12.77,97.0,100.0,10.56,68.75,161.3,Mon Dec  9 23:25:10 2019
vaini,79.68,51.0,40.0,9.17,15.34,74.49,Mon Dec  9 23:25:10 2019
bluff,99.16,13.0,0.0,18.01,-23.58,149.07,Mon Dec  9 23:25:10 2019
kodiak,16.93,85.0,1.0,9.17,39.95,-94.76,Mon Dec  9 23:25:11 2019
new norfolk,64.44,59.0,20.0,17.22,-42.78,147.06,Mon Dec  9 23:25:11 2019
cape town,71.83,56.0,87.0,8.05,-33.93,18.42,Mon Dec  9 23:25:11 2019
saint george,45.66,100.0,90.0,0.6,39.45,22.34,Mon Dec  9 23:25:11 2019
nanortalik,28.67,90.0,100.0,36.84,60.14,-45.24,Mon Dec  9 23:25:11 2019
longyearbyen,-2.2,77.0,75.0,4.7,78.22,15.63,Mon Dec  9 23:25:12 2019
jamestown,86.34,17.0,0.0,15.48,-33.21,138.6,Mon Dec  9 23:25:12 2019
mataura,57.99,71.0,96.0,7.0,-46.19,168.86,Mon Dec  9 23:25:12 2019
dunedin,57.0,83.0,89.0,14.0,-45.87,170.5,Mon Dec  9 23:25:12 2019
port alfred,66.99,88.0,94.0,8.99,-33.59,26.89,Mon Dec  9 23:25:12 2019
pangnirtung,8.08,80.0,100.0,7.78,66.15,-65.72,Mon Dec  9 23:25:13 2019
nome,69.91,100.0,75.0,3.36,30.04,-94.42,Mon Dec  9 23:25:13 2019
santa cruz,66.97,97.0,19.0,3.18,-6.22,-36.02,Mon Dec  9 23:25:13 2019
hobart,64.44,59.0,20.0,18.34,-42.88,147.33,Mon Dec  9 23:20:25 2019
tura,-8.46,97.0,100.0,3.31,64.27,100.22,Mon Dec  9 23:25:13 2019
pandan,80.85,81.0,100.0,22.3,11.72,122.09,Mon Dec  9 23:25:14 2019
castro,51.8,100.0,100.0,6.93,-42.48,-73.76,Mon Dec  9 23:25:14 2019
magaria,61.23,20.0,0.0,8.55,13.0,8.91,Mon Dec  9 23:25:14 2019
pemangkat,61.23,20.0,0.0,8.55,13.0,8.91,Mon Dec  9 23:25:14 2019
poum,41.0,93.0,90.0,3.36,41.28,20.71,Mon Dec  9 23:25:14 2019
mandalgovi,19.49,37.0,42.0,19.04,45.76,106.27,Mon Dec  9 23:25:15 2019
chambersburg,48.43,81.0,90.0,9.17,39.94,-77.66,Mon Dec  9 23:25:15 2019
zakamensk,10.96,64.0,12.0,2.55,50.38,103.29,Mon Dec  9 23:25:15 2019
half moon bay,51.39,71.0,75.0,4.68,37.46,-122.43,Mon Dec  9 23:25:15 2019
bismarck,0.48,71.0,90.0,10.29,46.81,-100.78,Mon Dec  9 23:25:13 2019
nelson bay,79.68,40.0,0.0,10.29,-32.72,152.14,Mon Dec  9 23:25:16 2019
komsomolskiy,26.22,96.0,100.0,13.0,67.55,63.78,Mon Dec  9 23:25:16 2019
svetlogorsk,19.4,100.0,40.0,4.47,53.14,59.15,Mon Dec  9 23:25:16 2019
sitio novo do tocantins,19.4,100.0,40.0,4.47,53.14,59.15,Mon Dec  9 23:25:16 2019
morehead,54.14,93.0,75.0,5.82,38.18,-83.43,Mon Dec  9 23:25:17 2019
umzimvubu,54.14,93.0,75.0,5.82,38.18,-83.43,Mon Dec  9 23:25:17 2019
grand river south east,54.14,93.0,75.0,5.82,38.18,-83.43,Mon Dec  9 23:25:17 2019
lahaina,71.55,78.0,1.0,5.82,20.87,-156.68,Mon Dec  9 23:25:17 2019
peleduy,-0.06,95.0,100.0,5.99,59.63,112.75,Mon Dec  9 23:25:18 2019
chokurdakh,-14.17,98.0,100.0,5.66,70.62,147.9,Mon Dec  9 23:25:18 2019
butaritari,84.45,63.0,60.0,4.05,3.07,172.79,Mon Dec  9 23:25:18 2019
chissamba,84.45,63.0,60.0,4.05,3.07,172.79,Mon Dec  9 23:25:18 2019
banjar,85.66,66.0,67.0,3.91,-7.37,108.54,Mon Dec  9 23:25:18 2019
gari,32.38,83.0,77.0,14.41,59.43,62.35,Mon Dec  9 23:25:19 2019
hithadhoo,82.89,78.0,37.0,10.16,-0.6,73.08,Mon Dec  9 23:25:19 2019
tuktoyaktuk,-9.4,76.0,5.0,16.11,69.44,-133.03,Mon Dec  9 23:25:19 2019
hermanus,72.41,59.0,100.0,1.99,-34.42,19.24,Mon Dec  9 23:25:19 2019
ust-kuyga,-26.54,95.0,66.0,0.83,70.0,135.55,Mon Dec  9 23:25:19 2019
gillette,14.83,92.0,90.0,10.83,44.29,-105.5,Mon Dec  9 23:25:02 2019
chumikan,3.43,95.0,100.0,1.72,54.72,135.31,Mon Dec  9 23:25:20 2019
aykhal,-22.0,82.0,50.0,2.24,65.95,111.51,Mon Dec  9 23:25:20 2019
sentyabrskiy,-22.0,82.0,50.0,2.24,65.95,111.51,Mon Dec  9 23:25:20 2019
fort nelson,10.4,85.0,90.0,3.36,58.81,-122.69,Mon Dec  9 23:25:20 2019
yellowknife,-26.28,67.0,5.0,6.93,62.45,-114.38,Mon Dec  9 23:25:21 2019
acapulco,75.2,88.0,5.0,3.33,16.86,-99.88,Mon Dec  9 23:25:21 2019
luanda,82.4,65.0,40.0,5.82,-8.83,13.24,Mon Dec  9 23:25:21 2019
japura,85.06,71.0,94.0,4.38,-0.42,102.29,Mon Dec  9 23:25:21 2019
lufilufi,80.01,83.0,74.0,8.46,-13.87,-171.6,Mon Dec  9 23:25:21 2019
thompson,-23.8,67.0,40.0,9.17,55.74,-97.86,Mon Dec  9 23:25:22 2019
avarua,73.4,94.0,100.0,12.75,-21.21,-159.78,Mon Dec  9 23:25:22 2019
palabuhanratu,73.4,94.0,100.0,12.75,-21.21,-159.78,Mon Dec  9 23:25:22 2019
saskylakh,-21.35,94.0,36.0,5.59,71.97,114.09,Mon Dec  9 23:25:22 2019
viligili,-21.35,94.0,36.0,5.59,71.97,114.09,Mon Dec  9 23:25:22 2019
albany,45.25,87.0,90.0,14.99,42.65,-73.75,Mon Dec  9 23:22:42 2019
margate,64.45,59.0,20.0,17.22,-43.03,147.26,Mon Dec  9 23:25:23 2019
illoqqortoormiut,64.45,59.0,20.0,17.22,-43.03,147.26,Mon Dec  9 23:25:23 2019
kapaa,73.89,94.0,40.0,3.36,22.08,-159.32,Mon Dec  9 23:22:31 2019
alofi,77.0,94.0,100.0,3.36,-19.06,-169.92,Mon Dec  9 23:25:23 2019
mar del plata,56.1,54.0,24.0,8.12,-46.43,-67.52,Mon Dec  9 23:25:23 2019
boa vista,78.8,74.0,77.0,8.05,2.82,-60.67,Mon Dec  9 23:25:24 2019
chuy,66.67,76.0,0.0,7.49,-33.69,-53.46,Mon Dec  9 23:25:24 2019
yulara,105.8,7.0,0.0,12.75,-25.24,130.99,Mon Dec  9 23:25:24 2019
lorengau,85.01,65.0,100.0,1.32,-2.02,147.27,Mon Dec  9 23:25:24 2019
baculin,79.9,80.0,99.0,6.02,7.45,126.58,Mon Dec  9 23:24:03 2019
coquimbo,55.4,82.0,40.0,3.36,-29.95,-71.34,Mon Dec  9 23:25:25 2019
peringat,82.4,74.0,20.0,12.75,5.99,102.3,Mon Dec  9 23:25:25 2019
cururupu,73.44,94.0,53.0,2.46,-1.82,-44.87,Mon Dec  9 23:25:25 2019
zhigansk,-22.29,92.0,100.0,5.37,66.77,123.37,Mon Dec  9 23:25:25 2019
tual,85.35,62.0,100.0,6.2,-5.67,132.75,Mon Dec  9 23:25:26 2019
rorvik,24.8,100.0,40.0,3.36,64.86,11.24,Mon Dec  9 23:25:26 2019
porto walter,72.43,91.0,100.0,2.1,-8.27,-72.74,Mon Dec  9 23:25:26 2019
faanui,81.07,71.0,100.0,6.22,-16.48,-151.75,Mon Dec  9 23:25:26 2019
egvekinot,21.85,90.0,100.0,28.1,66.32,-179.17,Mon Dec  9 23:25:26 2019
berezovyy,3.09,80.0,98.0,2.39,51.67,135.7,Mon Dec  9 23:25:26 2019
chapais,32.0,99.0,90.0,11.41,49.78,-74.86,Mon Dec  9 23:25:27 2019
hilo,65.7,83.0,1.0,3.36,19.71,-155.08,Mon Dec  9 23:25:27 2019
broome,37.47,86.0,63.0,12.75,52.47,1.45,Mon Dec  9 23:25:27 2019
pangkalanbuun,84.63,81.0,100.0,2.51,-2.68,111.62,Mon Dec  9 23:25:27 2019
evensk,-8.48,76.0,100.0,9.98,61.92,159.24,Mon Dec  9 23:25:27 2019
bambous virieux,86.59,74.0,75.0,16.11,-20.34,57.76,Mon Dec  9 23:25:28 2019
cidreira,71.29,84.0,0.0,4.68,-30.17,-50.22,Mon Dec  9 23:25:28 2019
magistralnyy,2.43,89.0,99.0,2.24,56.17,107.45,Mon Dec  9 23:25:28 2019
nikolskoye,41.0,80.0,20.0,15.66,59.7,30.79,Mon Dec  9 23:25:28 2019
milingimbi,41.0,80.0,20.0,15.66,59.7,30.79,Mon Dec  9 23:25:28 2019
saint-philippe,44.83,93.0,90.0,10.29,45.36,-73.48,Mon Dec  9 23:25:29 2019
tarudant,44.83,93.0,90.0,10.29,45.36,-73.48,Mon Dec  9 23:25:29 2019
gat,69.12,60.0,100.0,10.29,14.69,-16.54,Mon Dec  9 23:25:29 2019
banda aceh,83.7,67.0,34.0,8.77,5.56,95.32,Mon Dec  9 23:23:04 2019
taolanaro,83.7,67.0,34.0,8.77,5.56,95.32,Mon Dec  9 23:23:04 2019
porto nacional,73.4,100.0,20.0,4.7,-10.7,-48.41,Mon Dec  9 23:25:30 2019
byron bay,82.99,78.0,0.0,16.11,-28.65,153.62,Mon Dec  9 23:25:13 2019
ilulissat,1.4,45.0,0.0,2.24,69.22,-51.1,Mon Dec  9 23:25:30 2019
laguna,71.42,91.0,47.0,0.92,16.17,-88.94,Mon Dec  9 23:25:30 2019
punta arenas,43.12,70.0,40.0,11.41,-53.16,-70.91,Mon Dec  9 23:25:26 2019
victoria,86.99,70.0,75.0,4.7,5.28,115.24,Mon Dec  9 23:25:31 2019
butia,68.09,92.0,99.0,0.83,-21.88,-47.57,Mon Dec  9 23:25:31 2019
jining,57.96,22.0,27.0,12.33,35.41,116.58,Mon Dec  9 23:25:31 2019
krasnoarmeyskiy,40.93,83.0,100.0,4.94,46.12,40.39,Mon Dec  9 23:25:31 2019
manokwari,75.09,92.0,95.0,4.61,-0.87,134.08,Mon Dec  9 23:25:31 2019
saint anthony,26.02,85.0,90.0,3.36,43.97,-111.68,Mon Dec  9 23:25:32 2019
mahebourg,86.61,74.0,75.0,16.11,-20.41,57.7,Mon Dec  9 23:25:32 2019
port macquarie,83.77,49.0,1.0,9.17,-31.43,152.91,Mon Dec  9 23:25:32 2019
east london,64.4,88.0,75.0,9.17,-33.02,27.91,Mon Dec  9 23:25:32 2019
panzhihua,55.99,53.0,0.0,2.73,26.59,101.72,Mon Dec  9 23:25:32 2019
ozgon,55.99,53.0,0.0,2.73,26.59,101.72,Mon Dec  9 23:25:32 2019
cankuzo,65.7,84.0,89.0,1.12,-3.22,30.55,Mon Dec  9 23:25:33 2019
labuhan,85.01,73.0,86.0,2.55,-2.54,115.51,Mon Dec  9 23:25:33 2019
bandarbeyla,79.86,85.0,37.0,18.39,9.49,50.81,Mon Dec  9 23:25:06 2019
petropavlovsk-kamchatskiy,19.4,57.0,46.0,11.18,53.05,158.65,Mon Dec  9 23:25:33 2019
rawson,63.41,54.0,100.0,23.2,-43.3,-65.11,Mon Dec  9 23:25:33 2019
newport,47.12,87.0,100.0,13.87,51.59,-3.0,Mon Dec  9 23:25:34 2019
ponta do sol,66.49,97.0,100.0,4.92,-20.63,-46.0,Mon Dec  9 23:25:34 2019
kamenskoye,66.49,97.0,100.0,4.92,-20.63,-46.0,Mon Dec  9 23:25:34 2019
koumac,78.24,63.0,95.0,5.06,-20.56,164.28,Mon Dec  9 23:25:34 2019
morant bay,72.9,83.0,20.0,9.17,17.88,-76.41,Mon Dec  9 23:25:34 2019
hobyo,83.3,69.0,17.0,14.43,5.35,48.53,Mon Dec  9 23:25:35 2019
amderma,83.3,69.0,17.0,14.43,5.35,48.53,Mon Dec  9 23:25:35 2019
port elizabeth,57.4,87.0,90.0,8.05,39.31,-74.98,Mon Dec  9 23:25:35 2019
ipu,73.29,81.0,97.0,4.65,-4.32,-40.71,Mon Dec  9 23:25:35 2019
pisco,66.65,93.0,90.0,13.87,-13.71,-76.2,Mon Dec  9 23:25:35 2019
tougue,64.09,25.0,86.0,0.54,11.45,-11.68,Mon Dec  9 23:25:36 2019
bolshoye sorokino,64.09,25.0,86.0,0.54,11.45,-11.68,Mon Dec  9 23:25:36 2019
fort morgan,25.59,73.0,1.0,10.29,40.25,-103.8,Mon Dec  9 23:21:21 2019
ternate,84.06,70.0,75.0,6.93,14.29,120.72,Mon Dec  9 23:25:36 2019
vytegra,38.71,89.0,100.0,12.57,61.01,36.45,Mon Dec  9 23:25:36 2019
arraial do cabo,73.99,94.0,100.0,17.45,-22.97,-42.02,Mon Dec  9 23:25:37 2019
stornoway,73.99,94.0,100.0,17.45,-22.97,-42.02,Mon Dec  9 23:25:37 2019
aksarka,28.67,96.0,100.0,15.7,66.56,67.8,Mon Dec  9 23:25:37 2019
esperance,68.0,56.0,86.0,19.46,-33.86,121.89,Mon Dec  9 23:25:37 2019
dayong,71.6,56.0,72.0,8.95,25.02,118.29,Mon Dec  9 23:25:37 2019
mragowo,39.2,86.0,75.0,10.29,53.86,21.31,Mon Dec  9 23:25:37 2019
omsukchan,-21.51,98.0,100.0,5.64,62.53,155.8,Mon Dec  9 23:25:38 2019
samana,70.38,90.0,30.0,2.42,0.12,-76.97,Mon Dec  9 23:25:38 2019
mehamn,28.36,92.0,90.0,38.03,71.03,27.85,Mon Dec  9 23:25:38 2019
richards bay,69.55,70.0,100.0,2.37,-28.77,32.06,Mon Dec  9 23:25:38 2019
khatanga,-5.01,88.0,0.0,11.21,71.98,102.47,Mon Dec  9 23:25:38 2019
sumenep,86.04,65.0,93.0,6.64,-7.02,113.87,Mon Dec  9 23:25:39 2019
sisimiut,12.92,44.0,98.0,5.93,66.94,-53.67,Mon Dec  9 23:25:39 2019
vagay,27.05,89.0,79.0,10.38,57.94,69.02,Mon Dec  9 23:25:39 2019
coihueco,52.81,100.0,45.0,2.24,-36.63,-71.83,Mon Dec  9 23:25:39 2019
yatou,77.0,94.0,75.0,1.12,3.63,9.81,Mon Dec  9 23:25:39 2019
airai,87.06,34.0,0.0,7.83,-8.93,125.41,Mon Dec  9 23:25:40 2019
san borja,72.21,99.0,100.0,2.44,-14.86,-66.75,Mon Dec  9 23:25:40 2019
neryungri,-0.06,98.0,100.0,3.65,56.66,124.71,Mon Dec  9 23:25:40 2019
esso,4.51,93.0,93.0,9.26,55.93,158.7,Mon Dec  9 23:25:40 2019
lleida,45.77,81.0,0.0,14.99,41.61,0.63,Mon Dec  9 23:25:40 2019
bredasdorp,71.69,56.0,75.0,13.87,-34.53,20.04,Mon Dec  9 23:25:41 2019
aporawan,71.69,56.0,75.0,13.87,-34.53,20.04,Mon Dec  9 23:25:41 2019
katangli,12.87,86.0,100.0,2.42,51.71,143.23,Mon Dec  9 23:25:41 2019
puerto ayora,72.0,91.0,11.0,4.0,-0.74,-90.35,Mon Dec  9 23:25:41 2019
begunitsy,40.42,80.0,20.0,15.66,59.58,29.3,Mon Dec  9 23:25:42 2019
sinop,41.0,80.0,0.0,4.7,42.03,35.15,Mon Dec  9 23:25:42 2019
ribeira grande,62.6,67.0,75.0,14.99,38.52,-28.7,Mon Dec  9 23:25:42 2019
narsaq,26.6,68.0,100.0,10.29,60.91,-46.05,Mon Dec  9 23:25:42 2019
seoul,49.57,87.0,90.0,1.12,37.57,126.98,Mon Dec  9 23:21:14 2019
kotelnich,35.26,94.0,100.0,12.77,58.31,48.34,Mon Dec  9 23:25:43 2019
shymkent,46.4,93.0,90.0,11.18,42.31,69.59,Mon Dec  9 23:25:43 2019
san patricio,69.85,75.0,5.0,3.18,-26.98,-56.83,Mon Dec  9 23:25:43 2019
zhanaozen,38.59,80.0,99.0,4.92,43.35,52.85,Mon Dec  9 23:25:43 2019
kaitangata,57.0,89.0,41.0,3.0,-46.28,169.85,Mon Dec  9 23:25:43 2019
lagoa,50.25,81.0,0.0,6.93,37.14,-8.45,Mon Dec  9 23:25:44 2019
viedma,63.61,46.0,33.0,4.97,-40.81,-62.99,Mon Dec  9 23:25:44 2019
bengkulu,63.61,46.0,33.0,4.97,-40.81,-62.99,Mon Dec  9 23:25:44 2019
galiwinku,63.61,46.0,33.0,4.97,-40.81,-62.99,Mon Dec  9 23:25:44 2019
torbay,41.45,86.0,90.0,14.99,47.66,-52.73,Mon Dec  9 23:25:44 2019
armacao dos buzios,41.45,86.0,90.0,14.99,47.66,-52.73,Mon Dec  9 23:25:44 2019
codrington,84.29,58.0,31.0,16.11,-28.95,153.24,Mon Dec  9 23:25:45 2019
estelle,43.65,56.0,0.0,6.93,43.97,3.47,Mon Dec  9 23:25:45 2019
venice,62.92,100.0,90.0,5.82,27.1,-82.45,Mon Dec  9 23:23:00 2019
cayenne,77.0,88.0,75.0,4.7,4.94,-52.33,Mon Dec  9 23:25:45 2019
tidore,77.0,88.0,75.0,4.7,4.94,-52.33,Mon Dec  9 23:25:45 2019
whitianga,68.0,62.0,77.0,1.99,-36.83,175.7,Mon Dec  9 23:25:46 2019
attawapiskat,68.0,62.0,77.0,1.99,-36.83,175.7,Mon Dec  9 23:25:46 2019
faranah,65.53,52.0,35.0,0.96,10.04,-10.74,Mon Dec  9 23:25:46 2019
clyde river,-14.8,94.0,36.0,5.84,70.47,-68.59,Mon Dec  9 23:25:46 2019
qaanaaq,-8.16,52.0,0.0,6.6,77.48,-69.36,Mon Dec  9 23:25:47 2019
bethel,37.4,76.0,20.0,23.04,60.79,-161.76,Mon Dec  9 23:25:47 2019
tuatapere,57.99,71.0,100.0,7.0,-46.13,167.69,Mon Dec  9 23:25:47 2019
burnie,60.01,78.0,22.0,1.99,-41.05,145.91,Mon Dec  9 23:25:47 2019
kidal,65.08,15.0,67.0,10.83,18.44,1.41,Mon Dec  9 23:25:48 2019
lethem,78.46,70.0,100.0,12.59,3.38,-59.8,Mon Dec  9 23:25:48 2019
toora-khem,12.51,84.0,92.0,2.19,52.47,96.11,Mon Dec  9 23:25:48 2019
leningradskiy,16.65,96.0,100.0,11.36,69.38,178.42,Mon Dec  9 23:25:48 2019
dikson,6.44,83.0,100.0,17.05,73.51,80.55,Mon Dec  9 23:25:48 2019
sovetskiy,34.14,97.0,100.0,14.61,56.76,48.47,Mon Dec  9 23:25:48 2019
tilichiki,-14.04,93.0,1.0,8.08,60.47,166.1,Mon Dec  9 23:25:49 2019
saldanha,36.86,84.0,86.0,2.68,41.42,-6.55,Mon Dec  9 23:25:49 2019
mgachi,10.92,83.0,100.0,4.41,51.05,142.27,Mon Dec  9 23:25:49 2019
noyabrsk,27.72,94.0,99.0,23.62,63.2,75.45,Mon Dec  9 23:25:49 2019
grand centre,27.72,94.0,99.0,23.62,63.2,75.45,Mon Dec  9 23:25:49 2019
mindelo,40.77,86.0,11.0,3.36,41.31,-8.72,Mon Dec  9 23:25:50 2019
raudeberg,31.68,69.0,75.0,19.46,61.99,5.14,Mon Dec  9 23:25:50 2019
bac lieu,31.68,69.0,75.0,19.46,61.99,5.14,Mon Dec  9 23:25:50 2019
katsuura,55.4,66.0,20.0,9.17,33.93,134.5,Mon Dec  9 23:25:50 2019
tefe,73.26,89.0,88.0,1.01,-3.35,-64.71,Mon Dec  9 23:25:51 2019
nicoya,74.23,83.0,9.0,2.24,10.15,-85.45,Mon Dec  9 23:25:51 2019
longlac,74.23,83.0,9.0,2.24,10.15,-85.45,Mon Dec  9 23:25:51 2019
maxixe,80.6,74.0,75.0,11.41,-23.86,35.35,Mon Dec  9 23:25:51 2019
marzuq,76.08,44.0,0.0,3.83,14.4,46.47,Mon Dec  9 23:25:52 2019
isangel,80.6,74.0,75.0,11.41,-19.55,169.27,Mon Dec  9 23:25:52 2019
tiksi,-17.14,98.0,100.0,3.06,71.64,128.87,Mon Dec  9 23:25:52 2019
beyneu,36.82,73.0,100.0,8.37,45.32,55.19,Mon Dec  9 23:25:52 2019
hihifo,36.82,73.0,100.0,8.37,45.32,55.19,Mon Dec  9 23:25:52 2019
ca mau,87.08,47.0,43.0,4.09,9.18,105.15,Mon Dec  9 23:25:53 2019
kargopol,37.18,94.0,100.0,10.89,61.51,38.95,Mon Dec  9 23:25:53 2019
senno,39.2,86.0,75.0,11.18,57.76,27.95,Mon Dec  9 23:25:53 2019
jieshi,70.0,40.0,0.0,7.14,22.82,115.83,Mon Dec  9 23:25:53 2019
le port,38.14,79.0,88.0,4.0,42.87,1.37,Mon Dec  9 23:25:54 2019
katherine,105.8,12.0,4.0,17.22,-14.47,132.26,Mon Dec  9 23:25:54 2019
broadstairs,38.88,93.0,50.0,9.17,51.36,1.44,Mon Dec  9 23:25:54 2019
upernavik,0.19,51.0,0.0,5.57,72.79,-56.15,Mon Dec  9 23:25:54 2019
olafsvik,0.19,51.0,0.0,5.57,72.79,-56.15,Mon Dec  9 23:25:54 2019
goianesia,68.04,94.0,100.0,2.28,-15.32,-49.12,Mon Dec  9 23:25:55 2019
salalah,84.2,62.0,40.0,6.93,17.01,54.1,Mon Dec  9 23:25:55 2019
velyka lepetykha,37.35,96.0,71.0,7.78,47.18,33.94,Mon Dec  9 23:25:55 2019
kavaratti,82.85,67.0,10.0,6.6,10.57,72.64,Mon Dec  9 23:25:56 2019
toliary,82.85,67.0,10.0,6.6,10.57,72.64,Mon Dec  9 23:25:56 2019
mackenzie,15.8,85.0,90.0,2.24,55.34,-123.09,Mon Dec  9 23:25:56 2019
mys shmidta,15.8,85.0,90.0,2.24,55.34,-123.09,Mon Dec  9 23:25:56 2019
lompoc,48.2,93.0,1.0,11.5,34.64,-120.46,Mon Dec  9 23:24:02 2019
kavieng,85.14,68.0,81.0,6.42,-2.57,150.8,Mon Dec  9 23:25:57 2019
kuah,85.14,68.0,81.0,6.42,-2.57,150.8,Mon Dec  9 23:25:57 2019
burica,85.14,68.0,81.0,6.42,-2.57,150.8,Mon Dec  9 23:25:57 2019
lavrentiya,28.53,92.0,100.0,28.72,65.58,-170.99,Mon Dec  9 23:25:57 2019
tessalit,62.56,22.0,100.0,8.3,20.2,1.01,Mon Dec  9 23:25:58 2019
altay,23.41,67.0,0.0,1.25,47.83,88.13,Mon Dec  9 23:25:58 2019
fortuna foothills,56.14,71.0,1.0,6.93,32.66,-114.41,Mon Dec  9 23:25:58 2019
guira de melena,71.28,100.0,20.0,3.36,22.79,-82.51,Mon Dec  9 23:25:58 2019
pedasi,79.02,84.0,0.0,16.62,7.53,-80.03,Mon Dec  9 23:25:59 2019
ugoofaaru,82.96,79.0,67.0,19.55,5.67,73.0,Mon Dec  9 23:25:59 2019
belushya guba,82.96,79.0,67.0,19.55,5.67,73.0,Mon Dec  9 23:25:59 2019
touros,69.8,88.0,20.0,2.24,-5.2,-35.46,Mon Dec  9 23:25:59 2019
brooks,12.0,88.0,90.0,7.0,50.57,-111.89,Mon Dec  9 23:26:00 2019
sao joao da barra,72.81,93.0,87.0,4.94,-21.64,-41.05,Mon Dec  9 23:26:00 2019
borovskoy,22.77,93.0,12.0,9.53,53.8,64.15,Mon Dec  9 23:26:00 2019
caramay,82.53,74.0,91.0,7.09,10.18,119.24,Mon Dec  9 23:26:00 2019
sadabad,71.8,36.0,0.0,3.49,27.44,78.04,Mon Dec  9 23:26:00 2019
lisala,73.65,83.0,84.0,1.03,2.15,21.52,Mon Dec  9 23:26:01 2019
leeton,95.23,15.0,65.0,12.75,-34.55,146.4,Mon Dec  9 23:26:01 2019
hasaki,57.7,82.0,75.0,5.82,35.73,140.83,Mon Dec  9 23:26:01 2019
juba,39.65,86.0,40.0,12.75,57.82,26.93,Mon Dec  9 23:26:01 2019
nuuk,24.21,85.0,100.0,13.87,64.17,-51.74,Mon Dec  9 23:26:02 2019
general roca,69.8,40.0,67.0,5.82,-39.03,-67.58,Mon Dec  9 23:26:02 2019
carrickfergus,50.25,93.0,100.0,18.34,54.72,-5.81,Mon Dec  9 23:26:02 2019
severo-kurilsk,20.19,87.0,92.0,17.98,50.68,156.12,Mon Dec  9 23:26:02 2019
macusani,37.49,93.0,100.0,2.95,-14.07,-70.43,Mon Dec  9 23:26:02 2019
itaituba,72.07,98.0,92.0,0.87,-4.26,-55.99,Mon Dec  9 23:26:02 2019
tumannyy,72.07,98.0,92.0,0.87,-4.26,-55.99,Mon Dec  9 23:26:02 2019
qasigiannguit,1.4,45.0,0.0,2.24,68.82,-51.19,Mon Dec  9 23:26:03 2019
syracuse,47.01,87.0,90.0,9.17,43.05,-76.15,Mon Dec  9 23:22:23 2019
tocopilla,54.72,49.0,81.0,4.88,-22.09,-70.2,Mon Dec  9 23:26:03 2019
los llanos de aridane,64.4,68.0,20.0,9.17,28.66,-17.92,Mon Dec  9 23:26:03 2019
palmer,73.22,27.0,1.0,16.11,-34.85,139.16,Mon Dec  9 23:26:04 2019
ngunguru,64.0,71.0,1.0,13.15,-35.62,174.5,Mon Dec  9 23:26:04 2019
shadegan,58.12,71.0,100.0,6.02,30.65,48.67,Mon Dec  9 23:26:04 2019
joshimath,52.45,22.0,40.0,5.1,30.57,79.57,Mon Dec  9 23:26:04 2019
lolua,52.45,22.0,40.0,5.1,30.57,79.57,Mon Dec  9 23:26:04 2019
dingle,80.89,81.0,100.0,13.53,11.0,122.67,Mon Dec  9 23:26:05 2019
ho,80.89,81.0,100.0,13.53,11.0,122.67,Mon Dec  9 23:26:05 2019
pagudpud,82.4,58.0,40.0,5.82,18.56,120.79,Mon Dec  9 23:26:05 2019
plettenberg bay,67.1,60.0,99.0,3.33,-34.05,23.37,Mon Dec  9 23:26:05 2019
maragogi,79.21,78.0,4.0,14.12,-9.01,-35.22,Mon Dec  9 23:26:05 2019
humaita,65.41,93.0,88.0,4.7,-24.93,-65.37,Mon Dec  9 23:26:06 2019
nanakuli,72.75,94.0,1.0,3.69,21.39,-158.15,Mon Dec  9 23:26:06 2019
portland,50.72,93.0,90.0,6.93,43.66,-70.25,Mon Dec  9 23:22:46 2019
sanary-sur-mer,48.27,37.0,0.0,20.8,43.12,5.8,Mon Dec  9 23:21:34 2019
bilibino,-21.08,99.0,100.0,2.62,68.06,166.44,Mon Dec  9 23:26:06 2019
batagay,-31.61,92.0,64.0,1.3,67.65,134.64,Mon Dec  9 23:26:07 2019
kloulklubed,84.2,70.0,75.0,10.29,7.04,134.26,Mon Dec  9 23:26:07 2019
iqaluit,5.0,71.0,75.0,10.29,63.75,-68.52,Mon Dec  9 23:26:07 2019
samusu,5.0,71.0,75.0,10.29,63.75,-68.52,Mon Dec  9 23:26:07 2019
chabahar,75.94,62.0,0.0,6.06,25.29,60.65,Mon Dec  9 23:26:07 2019
mount gambier,62.6,51.0,42.0,17.22,-37.83,140.78,Mon Dec  9 23:25:23 2019
harwich,54.95,100.0,90.0,12.75,41.69,-70.08,Mon Dec  9 23:26:08 2019
afua,74.23,94.0,82.0,1.01,5.27,7.87,Mon Dec  9 23:26:08 2019
hay river,-27.4,67.0,20.0,2.24,60.82,-115.79,Mon Dec  9 23:26:08 2019
ventanas,51.8,93.0,75.0,1.07,-32.74,-71.48,Mon Dec  9 23:26:08 2019
comodoro rivadavia,62.6,51.0,19.0,17.22,-45.87,-67.48,Mon Dec  9 23:21:49 2019
tlahualilo,62.6,51.0,19.0,17.22,-45.87,-67.48,Mon Dec  9 23:21:49 2019
jawor,36.75,69.0,75.0,16.11,51.05,16.19,Mon Dec  9 23:26:09 2019
coihaique,54.41,76.0,90.0,4.7,-45.58,-72.07,Mon Dec  9 23:26:09 2019
pevek,1.35,97.0,100.0,8.34,69.7,170.27,Mon Dec  9 23:26:09 2019
pacific grove,49.78,87.0,90.0,4.7,36.62,-121.92,Mon Dec  9 23:26:10 2019
torrevieja,52.18,50.0,2.0,11.41,37.98,-0.68,Mon Dec  9 23:26:10 2019
santiago del estero,72.16,46.0,0.0,5.21,-27.8,-64.26,Mon Dec  9 23:26:10 2019
tiznit,53.19,60.0,0.0,1.03,29.7,-9.73,Mon Dec  9 23:26:10 2019
tutoia,73.42,90.0,73.0,3.58,-2.76,-42.27,Mon Dec  9 23:26:10 2019
ostrovnoy,27.5,97.0,100.0,6.02,68.05,39.51,Mon Dec  9 23:26:11 2019
sao joao batista,74.37,92.0,77.0,1.86,-3.13,-58.38,Mon Dec  9 23:26:11 2019
moletai,38.16,100.0,90.0,12.75,55.23,25.42,Mon Dec  9 23:26:11 2019
tawnat,38.16,100.0,90.0,12.75,55.23,25.42,Mon Dec  9 23:26:11 2019
udachnyy,-22.0,82.0,25.0,2.24,66.42,112.4,Mon Dec  9 23:26:11 2019
norden,37.02,68.0,90.0,5.82,53.59,7.21,Mon Dec  9 23:26:12 2019
caravelas,71.04,97.0,7.0,6.85,-17.73,-39.27,Mon Dec  9 23:26:12 2019
cockburn town,80.35,78.0,46.0,21.94,21.46,-71.14,Mon Dec  9 23:26:12 2019
pimentel,73.72,95.0,100.0,2.59,-3.7,-45.5,Mon Dec  9 23:26:12 2019
mocambique,73.72,95.0,100.0,2.59,-3.7,-45.5,Mon Dec  9 23:26:12 2019
ancud,51.8,100.0,100.0,6.93,-41.87,-73.83,Mon Dec  9 23:26:13 2019
pandamatenga,71.78,74.0,92.0,5.75,-18.54,25.64,Mon Dec  9 23:26:13 2019
vardo,49.6,81.0,90.0,9.17,39.62,-77.74,Mon Dec  9 23:26:13 2019
chernyshevskiy,-12.59,98.0,90.0,1.23,63.01,112.47,Mon Dec  9 23:26:13 2019
teahupoo,77.0,78.0,90.0,3.36,-17.83,-149.27,Mon Dec  9 23:26:13 2019
santa marta,60.22,79.0,98.0,4.52,11.24,-74.21,Mon Dec  9 23:26:14 2019
ola,-3.15,76.0,0.0,9.89,59.58,151.3,Mon Dec  9 23:26:14 2019
honningsvag,27.64,79.0,90.0,31.09,70.98,25.97,Mon Dec  9 23:26:14 2019
contamana,73.92,86.0,91.0,1.99,-7.35,-75.01,Mon Dec  9 23:26:14 2019
tasiilaq,21.2,73.0,69.0,4.7,65.61,-37.64,Mon Dec  9 23:26:14 2019
aklavik,-5.8,70.0,40.0,10.29,68.22,-135.01,Mon Dec  9 23:26:15 2019
mehriz,48.2,42.0,75.0,2.24,31.58,54.44,Mon Dec  9 23:26:15 2019
nizhnekamsk,32.0,91.0,90.0,20.13,55.64,51.82,Mon Dec  9 23:26:15 2019
pali,75.31,28.0,0.0,1.66,25.77,73.33,Mon Dec  9 23:26:15 2019
wang saphung,81.36,31.0,0.0,4.7,17.3,101.77,Mon Dec  9 23:26:15 2019
sovetskaya gavan,24.48,59.0,100.0,7.7,48.97,140.29,Mon Dec  9 23:26:16 2019
haflong,74.82,48.0,9.0,3.22,25.18,93.03,Mon Dec  9 23:26:16 2019
rudbar,74.82,48.0,9.0,3.22,25.18,93.03,Mon Dec  9 23:26:16 2019
san quintin,81.12,62.0,0.0,5.35,17.54,120.52,Mon Dec  9 23:26:16 2019
norman wells,-4.0,76.0,75.0,12.75,65.28,-126.83,Mon Dec  9 23:26:16 2019
vanimo,84.16,68.0,48.0,6.42,-2.67,141.3,Mon Dec  9 23:26:17 2019
kachug,2.21,84.0,37.0,2.19,53.96,105.89,Mon Dec  9 23:26:17 2019
kudahuvadhoo,82.72,76.0,96.0,14.03,2.67,72.89,Mon Dec  9 23:26:17 2019
arlit,69.17,13.0,92.0,6.73,18.74,7.39,Mon Dec  9 23:26:17 2019
mareeba,81.63,74.0,90.0,16.11,-16.99,145.42,Mon Dec  9 23:26:17 2019
tran,31.44,100.0,90.0,3.36,42.84,22.65,Mon Dec  9 23:26:18 2019
sindou,66.69,21.0,0.0,1.5,10.66,-5.16,Mon Dec  9 23:26:18 2019
siguiri,65.55,19.0,11.0,4.07,11.42,-9.17,Mon Dec  9 23:26:18 2019
taoudenni,62.13,39.0,100.0,9.28,22.68,-3.98,Mon Dec  9 23:26:18 2019
constitucion,52.0,61.0,1.0,1.99,23.99,-104.67,Mon Dec  9 23:26:18 2019
warrington,43.29,87.0,75.0,17.22,53.39,-2.59,Mon Dec  9 23:26:19 2019
marawi,82.99,81.0,100.0,8.01,8.0,124.29,Mon Dec  9 23:26:19 2019
oneida,15.48,66.0,1.0,18.34,41.07,-90.23,Mon Dec  9 23:26:19 2019
kuche,15.48,66.0,1.0,18.34,41.07,-90.23,Mon Dec  9 23:26:19 2019
rio grande,62.01,95.0,0.0,9.04,-32.03,-52.1,Mon Dec  9 23:26:20 2019
rio gallegos,42.8,70.0,0.0,19.46,-51.62,-69.22,Mon Dec  9 23:23:48 2019
kumeny,34.39,98.0,100.0,11.99,58.11,49.92,Mon Dec  9 23:26:20 2019
sorland,30.15,54.0,40.0,3.36,67.67,12.69,Mon Dec  9 23:26:20 2019
dali,55.44,20.0,0.0,10.98,34.79,109.94,Mon Dec  9 23:26:20 2019
maiduguri,63.68,40.0,63.0,5.26,11.84,13.15,Mon Dec  9 23:26:21 2019
kisangani,73.4,94.0,90.0,3.02,0.52,25.21,Mon Dec  9 23:26:21 2019
monrovia,73.4,94.0,75.0,3.06,6.33,-10.8,Mon Dec  9 23:26:21 2019
tommot,-2.0,97.0,99.0,1.72,58.97,126.27,Mon Dec  9 23:26:21 2019
saint-joseph,46.56,65.0,14.0,4.7,43.56,6.97,Mon Dec  9 23:26:21 2019
solnechnyy,5.16,98.0,99.0,3.56,50.72,136.64,Mon Dec  9 23:26:22 2019
saleaula,5.16,98.0,99.0,3.56,50.72,136.64,Mon Dec  9 23:26:22 2019
paredon,54.64,87.0,100.0,2.98,-18.93,-65.16,Mon Dec  9 23:26:22 2019
bud,28.0,86.0,20.0,8.05,62.91,6.91,Mon Dec  9 23:26:22 2019
camacha,63.63,77.0,40.0,4.7,33.08,-16.33,Mon Dec  9 23:26:23 2019
la asuncion,59.77,68.0,41.0,5.5,-26.05,-65.39,Mon Dec  9 23:26:23 2019
slavutych,32.32,93.0,95.0,7.38,51.52,30.76,Mon Dec  9 23:26:23 2019
shirokiy,33.6,92.0,100.0,11.5,53.87,39.17,Mon Dec  9 23:26:23 2019
halmstad,28.13,86.0,11.0,6.93,56.67,12.86,Mon Dec  9 23:26:23 2019
kailua,72.77,78.0,20.0,11.54,21.39,-157.74,Mon Dec  9 23:26:24 2019
kruisfontein,66.34,64.0,92.0,12.03,-34.0,24.73,Mon Dec  9 23:26:24 2019
terrace bay,-4.59,92.0,99.0,10.42,48.78,-87.1,Mon Dec  9 23:26:24 2019
vaitupu,-4.59,92.0,99.0,10.42,48.78,-87.1,Mon Dec  9 23:26:24 2019
deputatskiy,-21.17,80.0,61.0,0.43,69.3,139.9,Mon Dec  9 23:26:24 2019
tshikapa,70.03,96.0,96.0,4.09,-6.42,20.79,Mon Dec  9 23:26:25 2019
khuzhir,15.35,71.0,80.0,14.34,53.19,107.35,Mon Dec  9 23:26:25 2019
kadykchan,15.35,71.0,80.0,14.34,53.19,107.35,Mon Dec  9 23:26:25 2019
cacahoatan,69.8,100.0,20.0,5.79,14.98,-92.17,Mon Dec  9 23:26:25 2019
lamu,29.95,18.0,0.0,5.75,35.77,102.37,Mon Dec  9 23:26:26 2019
cabra,38.57,100.0,14.0,1.12,37.47,-4.43,Mon Dec  9 23:26:26 2019
acajutla,81.91,66.0,2.0,5.41,13.59,-89.83,Mon Dec  9 23:26:26 2019
dudinka,8.6,78.0,75.0,24.61,69.41,86.18,Mon Dec  9 23:24:58 2019
gorodishche,33.01,60.0,100.0,8.21,53.27,45.7,Mon Dec  9 23:26:26 2019
letlhakane,72.45,75.0,82.0,11.99,-21.42,25.59,Mon Dec  9 23:26:27 2019
moranbah,95.74,13.0,0.0,21.99,-22.0,148.04,Mon Dec  9 23:26:27 2019
asayita,95.74,13.0,0.0,21.99,-22.0,148.04,Mon Dec  9 23:26:27 2019
anzhero-sudzhensk,24.8,92.0,90.0,11.18,56.08,86.02,Mon Dec  9 23:26:27 2019
grindavik,33.8,86.0,75.0,9.17,63.84,-22.43,Mon Dec  9 23:26:28 2019
sweetwater,35.98,93.0,90.0,10.29,32.47,-100.41,Mon Dec  9 23:26:28 2019
rungata,35.98,93.0,90.0,10.29,32.47,-100.41,Mon Dec  9 23:26:28 2019
erzin,53.46,93.0,75.0,4.03,36.95,36.2,Mon Dec  9 23:26:28 2019
villarrica,50.0,100.0,90.0,1.63,-39.28,-72.23,Mon Dec  9 23:26:28 2019
naze,73.9,96.0,69.0,1.3,5.43,7.07,Mon Dec  9 23:26:29 2019
plouzane,50.34,87.0,90.0,21.92,48.38,-4.62,Mon Dec  9 23:26:29 2019
gazanjyk,44.64,83.0,90.0,11.77,39.24,55.52,Mon Dec  9 23:26:29 2019
mount isa,104.0,10.0,0.0,19.46,-20.73,139.49,Mon Dec  9 23:26:29 2019
mantua,34.86,100.0,0.0,2.24,45.16,10.79,Mon Dec  9 23:22:14 2019
longford,63.82,55.0,38.0,21.92,-41.59,147.12,Mon Dec  9 23:26:30 2019
kamenka,28.99,93.0,82.0,4.27,48.03,28.7,Mon Dec  9 23:26:30 2019
cabedelo,75.2,88.0,70.0,2.24,-6.97,-34.84,Mon Dec  9 23:26:30 2019
bambanglipuro,87.26,61.0,79.0,9.6,-7.95,110.28,Mon Dec  9 23:26:30 2019
lata,33.91,41.0,68.0,7.07,30.78,78.62,Mon Dec  9 23:26:30 2019
galeana,63.16,43.0,37.0,4.5,24.83,-100.08,Mon Dec  9 23:26:31 2019
shenkursk,37.99,89.0,100.0,13.62,62.11,42.91,Mon Dec  9 23:26:31 2019
nombre de dios,52.0,61.0,1.0,1.99,23.85,-104.24,Mon Dec  9 23:26:31 2019
uyemskiy,30.2,86.0,90.0,15.66,64.47,40.85,Mon Dec  9 23:26:31 2019
karauzyak,30.2,86.0,90.0,15.66,64.47,40.85,Mon Dec  9 23:26:31 2019
nkowakowa,55.4,100.0,90.0,10.29,-23.89,30.29,Mon Dec  9 23:26:32 2019
svetlaya,32.67,80.0,98.0,13.49,46.54,138.33,Mon Dec  9 23:26:32 2019
belgrade,42.8,93.0,75.0,4.7,44.82,20.46,Mon Dec  9 23:22:25 2019
simiti,71.51,82.0,75.0,2.75,7.96,-73.94,Mon Dec  9 23:26:32 2019
wanning,36.32,93.0,75.0,6.93,48.64,13.53,Mon Dec  9 23:26:33 2019
pizarro,80.17,78.0,62.0,5.55,4.95,-77.37,Mon Dec  9 23:26:33 2019
gualaco,61.29,99.0,34.0,0.65,15.03,-86.07,Mon Dec  9 23:26:33 2019
guhagar,81.52,60.0,1.0,3.29,17.48,73.19,Mon Dec  9 23:26:33 2019
huangchuan,58.37,35.0,0.0,11.18,24.57,102.46,Mon Dec  9 23:26:33 2019
kawalu,81.5,68.0,52.0,5.75,-7.38,108.21,Mon Dec  9 23:26:34 2019
abu samrah,48.81,88.0,71.0,9.15,35.3,37.18,Mon Dec  9 23:26:34 2019
sola,67.14,81.0,100.0,1.45,-3.17,33.8,Mon Dec  9 23:26:34 2019
kahului,71.08,78.0,1.0,5.82,20.89,-156.47,Mon Dec  9 23:26:34 2019
kortkeros,37.4,93.0,75.0,8.95,61.81,51.56,Mon Dec  9 23:26:35 2019
ahipara,64.99,96.0,40.0,17.27,-35.17,173.16,Mon Dec  9 23:26:35 2019
gazni,64.99,96.0,40.0,17.27,-35.17,173.16,Mon Dec  9 23:26:35 2019
constantine,42.8,93.0,90.0,19.46,36.36,6.61,Mon Dec  9 23:26:35 2019
san jose,62.04,85.0,59.0,6.22,14.25,-87.96,Mon Dec  9 23:26:35 2019
port lincoln,62.47,63.0,21.0,14.99,-34.72,135.86,Mon Dec  9 23:26:36 2019
alta floresta,73.4,100.0,20.0,5.82,-9.87,-56.08,Mon Dec  9 23:26:36 2019
champerico,62.89,91.0,46.0,1.48,16.38,-93.6,Mon Dec  9 23:26:36 2019
atar,65.41,25.0,100.0,15.82,20.52,-13.05,Mon Dec  9 23:26:36 2019
simbahan,83.52,78.0,100.0,11.1,6.3,120.58,Mon Dec  9 23:26:36 2019
bayan,29.95,18.0,0.0,5.75,36.1,102.26,Mon Dec  9 23:26:37 2019
samarkand,50.0,87.0,75.0,9.17,39.65,66.98,Mon Dec  9 23:26:37 2019
ha giang,63.32,38.0,0.0,5.1,22.83,104.99,Mon Dec  9 23:26:37 2019
tagusao,80.91,81.0,100.0,5.28,9.19,117.81,Mon Dec  9 23:26:37 2019
osypenko,33.8,100.0,90.0,4.47,48.04,34.39,Mon Dec  9 23:26:37 2019
puerto escondido,68.25,77.0,56.0,3.31,15.86,-97.07,Mon Dec  9 23:26:38 2019
kankan,66.69,43.0,7.0,1.59,10.38,-9.3,Mon Dec  9 23:26:38 2019
havelock,64.69,83.0,75.0,12.75,34.88,-76.9,Mon Dec  9 23:26:38 2019
powell river,39.6,93.0,90.0,3.36,49.84,-124.52,Mon Dec  9 23:26:38 2019
jackson,25.72,73.0,90.0,9.17,43.48,-110.76,Mon Dec  9 23:26:38 2019
mayo,12.2,78.0,90.0,9.17,63.59,-135.9,Mon Dec  9 23:26:39 2019
shu,46.0,94.0,100.0,11.01,43.6,73.76,Mon Dec  9 23:26:39 2019
cabo san lucas,67.28,87.0,14.0,1.99,22.89,-109.91,Mon Dec  9 23:26:39 2019
envira,67.28,87.0,14.0,1.99,22.89,-109.91,Mon Dec  9 23:26:39 2019
khonsa,61.43,81.0,0.0,3.94,26.99,95.51,Mon Dec  9 23:26:40 2019
samarai,83.88,68.0,100.0,6.15,-10.62,150.67,Mon Dec  9 23:26:40 2019
colac,56.07,85.0,29.0,4.0,-38.34,143.59,Mon Dec  9 23:26:40 2019
yelizovo,19.4,57.0,46.0,11.18,53.19,158.38,Mon Dec  9 23:26:40 2019
lasa,58.73,76.0,40.0,6.93,34.92,32.53,Mon Dec  9 23:26:40 2019
araouane,65.23,27.0,100.0,11.95,18.9,-3.53,Mon Dec  9 23:26:41 2019
lolodorf,71.02,97.0,69.0,2.3,3.23,10.73,Mon Dec  9 23:26:41 2019
fairbanks,25.05,100.0,40.0,4.14,64.84,-147.72,Mon Dec  9 23:26:41 2019
padang,80.08,76.0,37.0,1.34,-0.92,100.36,Mon Dec  9 23:26:41 2019
hearst,-6.14,97.0,100.0,10.4,49.69,-83.67,Mon Dec  9 23:26:41 2019
turukhansk,9.91,94.0,100.0,11.86,65.8,87.96,Mon Dec  9 23:26:42 2019
tortoli,49.95,62.0,75.0,29.97,39.93,9.66,Mon Dec  9 23:26:42 2019
belaya gora,-23.01,98.0,94.0,4.21,68.54,146.19,Mon Dec  9 23:26:42 2019
ende,84.88,68.0,0.0,3.49,-8.84,121.65,Mon Dec  9 23:26:42 2019
velingrad,32.9,86.0,75.0,2.24,42.03,23.99,Mon Dec  9 23:26:42 2019
santo antonio do sudoeste,60.71,97.0,33.0,3.42,-26.07,-53.73,Mon Dec  9 23:26:43 2019
eyl,80.62,80.0,19.0,16.98,7.98,49.82,Mon Dec  9 23:26:43 2019
makakilo city,72.75,83.0,1.0,3.69,21.35,-158.09,Mon Dec  9 23:23:54 2019
ribeira brava,60.39,72.0,40.0,6.93,32.65,-17.07,Mon Dec  9 23:26:43 2019
zaraza,71.6,95.0,93.0,4.07,9.35,-65.33,Mon Dec  9 23:26:44 2019
kant,39.2,86.0,99.0,2.24,42.89,74.85,Mon Dec  9 23:26:44 2019
rawannawi,39.2,86.0,99.0,2.24,42.89,74.85,Mon Dec  9 23:26:44 2019
grants,24.8,92.0,1.0,3.36,35.15,-107.85,Mon Dec  9 23:26:44 2019
ko samui,86.0,62.0,20.0,6.93,9.54,99.94,Mon Dec  9 23:26:44 2019
maningrida,91.08,51.0,18.0,13.35,-12.05,134.23,Mon Dec  9 23:26:45 2019
ketchikan,46.45,70.0,90.0,9.17,55.34,-131.65,Mon Dec  9 23:26:45 2019
trairi,75.02,84.0,96.0,4.43,-3.28,-39.27,Mon Dec  9 23:26:45 2019
maniitsoq,27.46,68.0,99.0,15.86,65.42,-52.9,Mon Dec  9 23:26:45 2019
pocone,73.35,96.0,100.0,3.58,-16.26,-56.62,Mon Dec  9 23:26:46 2019
kobrinskoye,40.42,80.0,20.0,15.66,59.42,30.12,Mon Dec  9 23:26:46 2019
bonthe,80.01,80.0,58.0,3.56,7.53,-12.5,Mon Dec  9 23:26:46 2019
beringovskiy,16.5,94.0,100.0,30.06,63.05,179.32,Mon Dec  9 23:26:46 2019
guerrero negro,61.77,78.0,0.0,12.24,27.97,-114.04,Mon Dec  9 23:26:46 2019
itacoatiara,74.37,92.0,77.0,1.86,-3.14,-58.44,Mon Dec  9 23:26:47 2019
barabai,85.01,73.0,86.0,2.55,-2.59,115.38,Mon Dec  9 23:26:47 2019
talnakh,8.6,78.0,75.0,24.61,69.49,88.39,Mon Dec  9 23:26:47 2019
znamenka,33.3,96.0,99.0,9.37,52.41,41.44,Mon Dec  9 23:26:47 2019
mandiana,65.91,23.0,0.0,3.13,10.62,-8.7,Mon Dec  9 23:26:47 2019
talaya,25.29,92.0,90.0,11.18,55.79,84.89,Mon Dec  9 23:26:48 2019
yakima,31.53,86.0,90.0,1.52,46.6,-120.51,Mon Dec  9 23:24:59 2019
adrar,41.0,60.0,0.0,9.17,27.87,-0.29,Mon Dec  9 23:26:48 2019
den helder,39.0,86.0,75.0,9.17,52.96,4.76,Mon Dec  9 23:26:48 2019
husavik,-11.99,83.0,100.0,5.99,50.56,-96.99,Mon Dec  9 23:26:48 2019
yar-sale,26.33,96.0,98.0,14.97,66.83,70.83,Mon Dec  9 23:26:49 2019
cinisi,50.34,71.0,40.0,4.7,38.16,13.11,Mon Dec  9 23:26:49 2019
nguiu,50.34,71.0,40.0,4.7,38.16,13.11,Mon Dec  9 23:26:49 2019
tiarei,77.0,78.0,90.0,3.36,-17.53,-149.33,Mon Dec  9 23:26:49 2019
fortuna,48.04,100.0,90.0,5.82,40.6,-124.16,Mon Dec  9 23:26:49 2019
nhulunbuy,89.6,55.0,0.0,14.99,-12.18,136.78,Mon Dec  9 23:26:50 2019
sur,76.69,54.0,0.0,5.1,22.57,59.53,Mon Dec  9 23:26:50 2019
malwan,76.69,54.0,0.0,5.1,22.57,59.53,Mon Dec  9 23:26:50 2019
geraldton,-13.0,69.0,40.0,9.17,49.72,-86.95,Mon Dec  9 23:26:50 2019
port arthur,70.54,94.0,75.0,5.82,29.9,-93.93,Mon Dec  9 23:26:50 2019
flin flon,-14.51,90.0,29.0,7.4,54.77,-101.88,Mon Dec  9 23:26:51 2019
chifeng,22.8,86.0,100.0,11.05,42.27,118.96,Mon Dec  9 23:26:51 2019
kingaroy,92.93,29.0,9.0,4.7,-26.54,151.84,Mon Dec  9 23:26:51 2019
vestmannaeyjar,33.8,84.0,75.0,9.17,63.44,-20.27,Mon Dec  9 23:26:51 2019
lokosovo,30.38,90.0,100.0,13.31,61.13,74.84,Mon Dec  9 23:26:51 2019
fuerte olimpo,72.19,90.0,94.0,0.47,-21.04,-57.87,Mon Dec  9 23:26:52 2019
gao,64.33,17.0,4.0,5.73,16.28,-0.04,Mon Dec  9 23:26:52 2019
sinkat,64.33,17.0,4.0,5.73,16.28,-0.04,Mon Dec  9 23:26:52 2019
sauda,38.14,74.0,40.0,11.41,59.65,6.35,Mon Dec  9 23:26:53 2019
waverly,60.06,93.0,90.0,9.17,37.04,-77.1,Mon Dec  9 23:26:53 2019
georgetown,75.2,100.0,20.0,4.7,6.8,-58.16,Mon Dec  9 23:24:59 2019
port augusta,81.41,53.0,0.0,25.28,-32.49,137.76,Mon Dec  9 23:26:53 2019
alingsas,24.66,85.0,3.0,4.7,57.93,12.53,Mon Dec  9 23:25:52 2019
karratha,84.2,66.0,0.0,20.89,-20.74,116.85,Mon Dec  9 23:26:54 2019
cockburn harbour,84.2,66.0,0.0,20.89,-20.74,116.85,Mon Dec  9 23:26:54 2019
hambantota,78.53,86.0,91.0,19.33,6.12,81.12,Mon Dec  9 23:26:54 2019
dir,64.0,30.0,76.0,1.61,6.33,13.54,Mon Dec  9 23:26:54 2019
berlevag,29.57,100.0,90.0,24.16,70.86,29.09,Mon Dec  9 23:26:55 2019
moose factory,3.2,77.0,90.0,12.75,51.26,-80.61,Mon Dec  9 23:26:55 2019
gorkovskoye,3.2,77.0,90.0,12.75,51.26,-80.61,Mon Dec  9 23:26:55 2019
bowen,84.63,66.0,75.0,14.99,-20.01,148.25,Mon Dec  9 23:26:55 2019
perivolion,53.31,93.0,90.0,6.93,39.42,20.01,Mon Dec  9 23:26:55 2019
qui nhon,53.31,93.0,90.0,6.93,39.42,20.01,Mon Dec  9 23:26:55 2019
imbituba,66.2,93.0,22.0,2.24,-28.24,-48.67,Mon Dec  9 23:26:56 2019
port-cartier,33.91,99.0,90.0,20.8,50.03,-66.88,Mon Dec  9 23:26:56 2019
gumia,75.13,39.0,0.0,1.52,23.8,85.83,Mon Dec  9 23:26:56 2019
russell,18.18,73.0,1.0,9.17,38.9,-98.86,Mon Dec  9 23:26:57 2019
sao felix do xingu,69.96,97.0,62.0,1.01,-6.64,-51.99,Mon Dec  9 23:26:57 2019
nizhniy tsasuchey,13.1,66.0,98.0,10.2,50.52,115.13,Mon Dec  9 23:26:57 2019
sassandra,77.47,86.0,1.0,1.45,4.95,-6.09,Mon Dec  9 23:26:57 2019
san andres,80.1,76.0,77.0,9.35,13.32,122.68,Mon Dec  9 23:26:57 2019
ewa beach,72.75,83.0,1.0,3.69,21.32,-158.01,Mon Dec  9 23:26:58 2019
laiyang,59.0,60.0,44.0,9.1,36.98,120.7,Mon Dec  9 23:26:58 2019
zhangye,42.03,14.0,0.0,3.83,38.94,100.46,Mon Dec  9 23:26:58 2019
iquitos,77.0,94.0,75.0,4.7,-3.75,-73.25,Mon Dec  9 23:26:58 2019
kosa,59.0,44.0,49.0,1.12,32.67,130.82,Mon Dec  9 23:26:58 2019
kingston,72.9,83.0,20.0,9.17,17.97,-76.79,Mon Dec  9 23:26:59 2019
joutseno,29.14,92.0,90.0,6.93,61.11,28.48,Mon Dec  9 23:26:59 2019
birjand,55.4,50.0,20.0,9.17,32.86,59.22,Mon Dec  9 23:26:59 2019
miles city,8.11,77.0,40.0,13.87,46.41,-105.84,Mon Dec  9 23:26:59 2019
jalingo,64.31,23.0,80.0,8.57,10.3,10.93,Mon Dec  9 23:26:59 2019
meulaboh,81.97,72.0,31.0,4.92,4.14,96.13,Mon Dec  9 23:27:00 2019
dianopolis,81.97,72.0,31.0,4.92,4.14,96.13,Mon Dec  9 23:27:00 2019
jinchengjiang,81.97,72.0,31.0,4.92,4.14,96.13,Mon Dec  9 23:27:00 2019
nongstoin,55.06,77.0,35.0,4.72,25.52,91.27,Mon Dec  9 23:27:00 2019
bay roberts,41.45,86.0,90.0,14.99,47.58,-53.28,Mon Dec  9 23:27:00 2019
beloha,75.45,76.0,100.0,13.67,-25.17,45.06,Mon Dec  9 23:27:01 2019
west wendover,26.6,100.0,1.0,1.72,40.74,-114.07,Mon Dec  9 23:27:01 2019
chimore,71.73,99.0,100.0,1.28,-16.98,-65.13,Mon Dec  9 23:27:01 2019
lulea,14.0,85.0,65.0,8.05,65.58,22.15,Mon Dec  9 23:27:01 2019
andenes,14.0,85.0,65.0,8.05,65.58,22.15,Mon Dec  9 23:27:01 2019
maceio,71.6,94.0,40.0,3.36,-9.67,-35.74,Mon Dec  9 23:27:02 2019
tabiauea,71.6,94.0,40.0,3.36,-9.67,-35.74,Mon Dec  9 23:27:02 2019
porbandar,86.0,33.0,19.0,5.82,21.64,69.61,Mon Dec  9 23:27:02 2019
palu,77.18,84.0,100.0,2.95,-0.9,119.87,Mon Dec  9 23:27:03 2019
cookeville,56.16,87.0,90.0,3.36,36.16,-85.5,Mon Dec  9 23:26:45 2019
luderitz,69.8,64.0,0.0,8.05,-26.65,15.16,Mon Dec  9 23:27:03 2019
zevenaar,35.15,85.0,90.0,2.24,51.94,6.08,Mon Dec  9 23:27:03 2019
bara,63.79,27.0,55.0,5.64,10.41,10.6,Mon Dec  9 23:27:03 2019
kandi,65.52,22.0,0.0,3.67,11.13,2.93,Mon Dec  9 23:27:04 2019
yugorsk,31.71,85.0,100.0,12.53,61.32,63.33,Mon Dec  9 23:27:04 2019
schiffdorf,36.1,86.0,20.0,4.7,53.54,8.66,Mon Dec  9 23:27:04 2019
eureka,48.04,87.0,90.0,4.45,40.8,-124.16,Mon Dec  9 23:27:04 2019
ponnani,87.8,55.0,20.0,4.7,10.77,75.93,Mon Dec  9 23:27:04 2019
belmonte,37.02,81.0,23.0,3.33,40.36,-7.35,Mon Dec  9 23:27:05 2019
tezu,71.8,30.0,0.0,3.76,27.93,96.16,Mon Dec  9 23:27:05 2019
praia da vitoria,58.23,93.0,75.0,25.68,38.73,-27.07,Mon Dec  9 23:27:05 2019
puerto rico,69.37,80.0,18.0,3.27,1.91,-75.15,Mon Dec  9 23:27:05 2019
muros,44.44,86.0,20.0,5.82,42.77,-9.06,Mon Dec  9 23:27:05 2019
sheboygan,21.76,73.0,90.0,16.11,43.75,-87.71,Mon Dec  9 23:27:06 2019
miedzychod,36.5,78.0,40.0,11.41,52.6,15.9,Mon Dec  9 23:27:06 2019
zhangjiakou,20.93,68.0,6.0,17.6,40.77,114.88,Mon Dec  9 23:27:06 2019
shenjiamen,60.24,67.0,0.0,9.51,29.96,122.3,Mon Dec  9 23:27:06 2019
la roda,32.56,61.0,80.0,4.7,39.21,-2.16,Mon Dec  9 23:27:07 2019
mataram,83.05,76.0,89.0,2.98,-5.32,105.06,Mon Dec  9 23:27:07 2019
wageningen,36.27,84.0,90.0,2.24,51.98,5.66,Mon Dec  9 23:27:07 2019
ndele,36.27,84.0,90.0,2.24,51.98,5.66,Mon Dec  9 23:27:07 2019
sorvag,36.27,84.0,90.0,2.24,51.98,5.66,Mon Dec  9 23:27:07 2019
nuevo progreso,74.19,78.0,40.0,13.87,26.05,-97.95,Mon Dec  9 23:27:08 2019
flinders,68.94,64.0,75.0,14.99,-34.58,150.85,Mon Dec  9 23:27:08 2019
plougastel-daoulas,50.34,87.0,90.0,21.92,48.37,-4.37,Mon Dec  9 23:27:08 2019
montepuez,80.42,72.0,100.0,7.29,-13.13,39.0,Mon Dec  9 23:27:08 2019
jiuquan,32.76,19.0,13.0,1.92,39.73,98.49,Mon Dec  9 23:27:08 2019
nyagan,32.18,89.0,100.0,13.71,62.14,65.43,Mon Dec  9 23:27:09 2019
necochea,64.99,30.0,65.0,3.36,-38.55,-58.74,Mon Dec  9 23:27:09 2019
lerwick,44.6,93.0,75.0,33.33,60.15,-1.15,Mon Dec  9 23:27:09 2019
halalo,44.6,93.0,75.0,33.33,60.15,-1.15,Mon Dec  9 23:27:09 2019
jertih,82.4,74.0,20.0,12.75,5.74,102.5,Mon Dec  9 23:27:09 2019
vao,40.24,88.0,100.0,13.29,59.1,26.19,Mon Dec  9 23:27:10 2019
korla,40.24,88.0,100.0,13.29,59.1,26.19,Mon Dec  9 23:27:10 2019
inongo,71.83,94.0,97.0,4.43,-1.93,18.29,Mon Dec  9 23:27:10 2019
hualmay,65.07,85.0,97.0,4.29,-11.1,-77.61,Mon Dec  9 23:27:10 2019
urumqi,65.07,85.0,97.0,4.29,-11.1,-77.61,Mon Dec  9 23:27:10 2019
burgeo,42.44,89.0,100.0,21.68,47.61,-57.61,Mon Dec  9 23:27:11 2019
juneau,38.41,86.0,75.0,12.75,58.3,-134.42,Mon Dec  9 23:22:21 2019
lanigan,-13.47,91.0,0.0,7.14,51.85,-105.03,Mon Dec  9 23:27:11 2019
springbok,62.6,63.0,0.0,4.7,-29.67,17.88,Mon Dec  9 23:27:11 2019
riverton,15.03,92.0,1.0,4.7,43.02,-108.38,Mon Dec  9 23:27:11 2019
asau,15.03,92.0,1.0,4.7,43.02,-108.38,Mon Dec  9 23:27:11 2019
plaster rock,45.75,100.0,90.0,8.05,46.91,-67.4,Mon Dec  9 23:27:12 2019
godda,76.08,33.0,0.0,5.79,24.83,87.21,Mon Dec  9 23:27:12 2019
winslow,39.56,100.0,40.0,8.05,51.94,-0.88,Mon Dec  9 23:23:09 2019
nordfjordeid,28.54,79.0,40.0,10.29,61.91,5.99,Mon Dec  9 23:27:12 2019
obluche,28.54,79.0,40.0,10.29,61.91,5.99,Mon Dec  9 23:27:12 2019
suileng,7.92,82.0,43.0,1.36,47.25,127.08,Mon Dec  9 23:27:13 2019
pontianak,92.48,49.0,90.0,3.0,-0.02,109.34,Mon Dec  9 23:27:13 2019
saint-pierre,28.13,100.0,0.0,6.93,48.95,4.24,Mon Dec  9 23:27:13 2019
monticello,20.05,79.0,20.0,25.28,40.03,-88.57,Mon Dec  9 23:27:14 2019
aswan,60.8,51.0,44.0,6.93,24.09,32.9,Mon Dec  9 23:27:14 2019
gamba,32.49,11.0,0.0,7.29,28.28,88.52,Mon Dec  9 23:27:14 2019
port keats,91.72,58.0,18.0,12.86,-14.25,129.55,Mon Dec  9 23:27:14 2019
bjornevatn,27.59,86.0,75.0,36.91,69.67,29.98,Mon Dec  9 23:27:14 2019
rantepao,77.31,83.0,41.0,2.98,-2.97,119.9,Mon Dec  9 23:27:15 2019
cartersville,57.96,82.0,90.0,8.05,34.17,-84.8,Mon Dec  9 23:27:15 2019
banyo,65.12,35.0,78.0,1.54,6.75,11.81,Mon Dec  9 23:27:15 2019
hato mayor,73.17,94.0,20.0,4.7,18.76,-69.26,Mon Dec  9 23:27:15 2019
safford,39.76,93.0,90.0,4.7,32.83,-109.71,Mon Dec  9 23:27:15 2019
bafoulabe,72.3,12.0,93.0,6.06,13.81,-10.83,Mon Dec  9 23:27:16 2019
santa rosa del sur,71.51,82.0,75.0,2.75,7.96,-74.05,Mon Dec  9 23:27:16 2019
marcona,71.51,82.0,75.0,2.75,7.96,-74.05,Mon Dec  9 23:27:16 2019
pasni,77.81,48.0,0.0,7.65,25.26,63.48,Mon Dec  9 23:27:16 2019
mandurah,88.27,19.0,8.0,16.11,-32.55,115.7,Mon Dec  9 23:27:16 2019
wellington,61.75,72.0,86.0,5.82,-41.29,174.78,Mon Dec  9 23:22:34 2019
ponta delgada,66.2,88.0,75.0,16.11,37.73,-25.67,Mon Dec  9 23:27:17 2019
xining,28.62,28.0,0.0,5.75,36.62,101.77,Mon Dec  9 23:27:17 2019
prince rupert,33.8,100.0,1.0,10.07,54.32,-130.32,Mon Dec  9 23:24:05 2019
trelew,64.51,39.0,78.0,22.93,-43.25,-65.31,Mon Dec  9 23:27:18 2019
te anau,54.75,66.0,69.0,8.43,-45.41,167.72,Mon Dec  9 23:27:18 2019
silvan,44.6,93.0,90.0,5.82,38.14,41.01,Mon Dec  9 23:27:18 2019
khonuu,44.6,93.0,90.0,5.82,38.14,41.01,Mon Dec  9 23:27:18 2019
barawe,44.6,93.0,90.0,5.82,38.14,41.01,Mon Dec  9 23:27:18 2019
varhaug,35.8,74.0,75.0,9.17,58.61,5.65,Mon Dec  9 23:27:18 2019
santiago,74.43,74.0,88.0,3.2,16.69,121.54,Mon Dec  9 23:26:38 2019
santa fe,74.59,60.0,0.0,1.01,-31.62,-60.7,Mon Dec  9 23:26:00 2019
palkaka,74.59,60.0,0.0,1.01,-31.62,-60.7,Mon Dec  9 23:26:00 2019
filingue,66.52,17.0,0.0,6.4,14.35,3.32,Mon Dec  9 23:27:19 2019
cullinan,60.22,87.0,90.0,9.17,-25.67,28.53,Mon Dec  9 23:27:20 2019
new iberia,71.1,100.0,90.0,9.17,30.0,-91.82,Mon Dec  9 23:24:10 2019
aleksandrov gay,25.93,84.0,0.0,4.05,50.14,48.57,Mon Dec  9 23:27:20 2019
severo-yeniseyskiy,16.72,90.0,95.0,8.88,60.37,93.04,Mon Dec  9 23:27:20 2019
lamut,68.76,79.0,63.0,3.51,16.65,121.22,Mon Dec  9 23:27:20 2019
axim,74.57,94.0,98.0,2.35,4.87,-2.24,Mon Dec  9 23:27:21 2019
clyde,66.99,59.0,81.0,6.42,-45.19,169.32,Mon Dec  9 23:27:21 2019
rodino,18.36,96.0,100.0,6.42,52.5,80.2,Mon Dec  9 23:27:21 2019
sakaiminato,59.85,48.0,40.0,4.7,35.55,133.23,Mon Dec  9 23:27:21 2019
formoso do araguaia,59.85,48.0,40.0,4.7,35.55,133.23,Mon Dec  9 23:27:21 2019
kamaishi,41.0,80.0,40.0,2.24,39.28,141.86,Mon Dec  9 23:27:21 2019
florianopolis,65.26,93.0,60.0,2.24,-27.6,-48.55,Mon Dec  9 23:27:22 2019
antalaha,81.79,82.0,100.0,5.73,-14.9,50.28,Mon Dec  9 23:27:22 2019
tazovskiy,11.89,94.0,85.0,9.98,67.47,78.7,Mon Dec  9 23:27:22 2019
villamontes,74.08,57.0,100.0,2.08,-21.26,-63.47,Mon Dec  9 23:27:22 2019
emba,58.75,76.0,40.0,6.93,34.81,32.42,Mon Dec  9 23:27:23 2019
ganzhou,71.4,14.0,0.0,0.85,25.86,114.93,Mon Dec  9 23:27:23 2019
atambua,87.06,55.0,0.0,6.38,-9.11,124.89,Mon Dec  9 23:27:23 2019
mount pleasant,43.38,81.0,40.0,11.41,33.16,-94.97,Mon Dec  9 23:27:23 2019
nagato,58.24,71.0,75.0,5.82,34.35,131.14,Mon Dec  9 23:27:23 2019
sohag,59.0,62.0,53.0,2.24,26.55,31.7,Mon Dec  9 23:27:24 2019
takoradi,77.83,86.0,84.0,5.06,4.89,-1.75,Mon Dec  9 23:27:24 2019
vila franca do campo,66.2,88.0,75.0,16.11,37.72,-25.43,Mon Dec  9 23:27:24 2019
meyungs,66.2,88.0,75.0,16.11,37.72,-25.43,Mon Dec  9 23:27:24 2019
sidrolandia,69.8,100.0,75.0,4.7,-20.93,-54.96,Mon Dec  9 23:27:02 2019
tubruq,69.8,100.0,75.0,4.7,-20.93,-54.96,Mon Dec  9 23:27:02 2019
pringsewu,83.05,76.0,89.0,2.98,-5.36,104.98,Mon Dec  9 23:27:25 2019
lethbridge,15.33,85.0,75.0,6.93,49.69,-112.85,Mon Dec  9 23:24:08 2019
dubrovnik,50.81,76.0,40.0,8.05,42.65,18.09,Mon Dec  9 23:27:25 2019
bolu,31.68,72.0,0.0,4.25,40.73,31.61,Mon Dec  9 23:27:25 2019
marfino,37.44,100.0,90.0,8.95,56.07,37.56,Mon Dec  9 23:27:26 2019
kondinskoye,32.07,85.0,100.0,14.0,59.65,67.41,Mon Dec  9 23:27:26 2019
synya,33.98,98.0,100.0,12.55,65.37,58.04,Mon Dec  9 23:27:26 2019
chengde,38.53,40.0,31.0,16.82,40.97,117.93,Mon Dec  9 23:27:26 2019
york,50.09,81.0,75.0,6.93,39.96,-76.73,Mon Dec  9 23:27:26 2019
nador,49.93,87.0,77.0,3.36,35.17,-2.93,Mon Dec  9 23:27:27 2019
hebi,63.01,16.0,17.0,10.87,35.75,114.29,Mon Dec  9 23:27:27 2019
port said,61.45,55.0,64.0,0.58,25.34,30.55,Mon Dec  9 23:27:27 2019
bereda,42.46,93.0,77.0,6.93,43.27,-7.54,Mon Dec  9 23:27:27 2019
wau,42.46,93.0,77.0,6.93,43.27,-7.54,Mon Dec  9 23:27:27 2019
rocha,65.89,67.0,0.0,11.43,-34.48,-54.34,Mon Dec  9 23:27:28 2019
grenville,46.49,93.0,90.0,9.17,45.62,-74.6,Mon Dec  9 23:27:28 2019
mount abu,78.4,22.0,1.0,1.52,24.59,72.71,Mon Dec  9 23:27:28 2019
abu dhabi,77.0,69.0,3.0,4.7,24.47,54.37,Mon Dec  9 23:24:02 2019
snezhnogorsk,15.8,85.0,75.0,11.18,69.19,33.23,Mon Dec  9 23:27:28 2019
sayabec,15.8,85.0,75.0,11.18,69.19,33.23,Mon Dec  9 23:27:28 2019
kstovo,37.11,93.0,90.0,8.95,56.15,44.2,Mon Dec  9 23:22:45 2019
zhanatas,37.11,93.0,90.0,8.95,56.15,44.2,Mon Dec  9 23:22:45 2019
isla vista,47.34,87.0,1.0,8.05,34.41,-119.86,Mon Dec  9 23:27:29 2019
kautokeino,9.25,81.0,0.0,14.0,69.01,23.04,Mon Dec  9 23:27:30 2019
hamilton,49.3,87.0,90.0,19.46,43.26,-79.87,Mon Dec  9 23:22:59 2019
westport,53.1,93.0,90.0,6.93,41.14,-73.36,Mon Dec  9 23:26:50 2019
gizo,59.7,77.0,75.0,9.17,31.8,34.94,Mon Dec  9 23:27:30 2019
porto torres,48.2,81.0,20.0,2.24,40.84,8.4,Mon Dec  9 23:27:30 2019
ayr,84.0,67.0,41.0,11.99,-19.58,147.4,Mon Dec  9 23:27:31 2019
whyalla,73.4,53.0,0.0,25.28,-33.04,137.58,Mon Dec  9 23:27:31 2019
elizabeth city,63.79,77.0,1.0,11.41,36.3,-76.22,Mon Dec  9 23:27:31 2019
aguadilla,73.42,85.0,0.0,12.97,18.43,-67.15,Mon Dec  9 23:27:31 2019
college,26.83,100.0,40.0,2.68,64.86,-147.8,Mon Dec  9 23:27:31 2019
burhanpur,76.95,42.0,37.0,5.5,21.31,76.23,Mon Dec  9 23:26:10 2019
sambava,90.1,55.0,80.0,2.46,-14.27,50.17,Mon Dec  9 23:27:32 2019
benalla,80.58,10.0,0.0,17.22,-36.55,145.99,Mon Dec  9 23:27:32 2019
srednekolymsk,-21.37,96.0,99.0,9.19,67.46,153.71,Mon Dec  9 23:27:32 2019
ixtapa,71.29,88.0,5.0,4.38,20.71,-105.21,Mon Dec  9 23:27:32 2019
rincon,66.99,70.0,21.0,5.99,8.46,-82.28,Mon Dec  9 23:27:33 2019
mitsamiouli,84.2,83.0,40.0,10.29,-11.38,43.28,Mon Dec  9 23:27:33 2019
astipalaia,84.2,83.0,40.0,10.29,-11.38,43.28,Mon Dec  9 23:27:33 2019
leshukonskoye,30.27,91.0,98.0,13.15,64.9,45.76,Mon Dec  9 23:27:33 2019
kimbe,82.89,78.0,47.0,3.36,-5.56,150.15,Mon Dec  9 23:27:33 2019
riyadh,64.4,82.0,40.0,5.82,24.63,46.72,Mon Dec  9 23:22:59 2019
saint austell,50.83,100.0,100.0,24.16,50.34,-4.77,Mon Dec  9 23:27:34 2019
caohai,40.91,80.0,62.0,3.09,26.87,104.28,Mon Dec  9 23:27:34 2019
fredericksburg,52.81,93.0,40.0,10.29,38.3,-77.46,Mon Dec  9 23:27:34 2019
morwell,61.95,57.0,2.0,8.99,-38.24,146.4,Mon Dec  9 23:27:34 2019
cienfuegos,73.4,94.0,0.0,5.82,22.15,-80.44,Mon Dec  9 23:27:35 2019
pochutla,72.0,88.0,26.0,6.87,15.74,-96.47,Mon Dec  9 23:27:35 2019
vostok,20.44,94.0,100.0,4.52,46.45,135.83,Mon Dec  9 23:27:35 2019
kaliua,67.66,90.0,100.0,1.63,-5.06,31.79,Mon Dec  9 23:27:35 2019
alenquer,75.2,100.0,20.0,4.7,-1.95,-54.74,Mon Dec  9 23:27:35 2019
marsh harbour,75.97,82.0,4.0,14.81,26.54,-77.06,Mon Dec  9 23:27:36 2019
ballina,53.06,100.0,90.0,19.46,54.11,-9.15,Mon Dec  9 23:27:36 2019
buala,84.11,69.0,100.0,4.72,-8.15,159.59,Mon Dec  9 23:27:36 2019
koygorodok,36.19,95.0,100.0,11.99,60.44,51.01,Mon Dec  9 23:27:36 2019
mafinga,36.19,95.0,100.0,11.99,60.44,51.01,Mon Dec  9 23:27:36 2019
porto novo,69.8,83.0,75.0,1.01,-23.68,-45.44,Mon Dec  9 23:27:37 2019
mendi,75.34,42.0,57.0,1.14,9.8,35.1,Mon Dec  9 23:27:37 2019
omboue,71.94,95.0,100.0,3.87,-1.57,9.26,Mon Dec  9 23:27:37 2019
kyle of lochalsh,71.94,95.0,100.0,3.87,-1.57,9.26,Mon Dec  9 23:27:37 2019
sandakan,77.0,100.0,90.0,5.82,5.84,118.12,Mon Dec  9 23:27:37 2019
quelimane,87.8,62.0,75.0,8.05,-17.88,36.89,Mon Dec  9 23:27:38 2019
hervey bay,82.17,61.0,0.0,13.87,-25.3,152.85,Mon Dec  9 23:27:38 2019
warrnambool,60.01,41.0,70.0,8.01,-38.38,142.48,Mon Dec  9 23:27:38 2019
rio cuarto,73.4,53.0,31.0,5.82,-33.13,-64.35,Mon Dec  9 23:27:38 2019
kirakira,80.28,83.0,65.0,2.86,-10.46,161.92,Mon Dec  9 23:27:38 2019
turayf,53.6,93.0,75.0,9.17,31.68,38.65,Mon Dec  9 23:27:39 2019
klaeng,88.65,31.0,61.0,10.96,12.78,101.65,Mon Dec  9 23:27:39 2019
waitati,57.0,84.0,89.0,15.01,-45.75,170.57,Mon Dec  9 23:27:39 2019
patea,60.58,82.0,77.0,1.99,-39.76,174.48,Mon Dec  9 23:27:39 2019
asyut,55.4,66.0,33.0,5.82,27.18,31.19,Mon Dec  9 23:27:39 2019
dno,37.0,89.0,79.0,9.86,57.83,29.97,Mon Dec  9 23:27:40 2019
sibu,82.4,78.0,75.0,5.82,2.29,111.83,Mon Dec  9 23:27:40 2019
coueron,41.36,100.0,90.0,5.82,47.22,-1.72,Mon Dec  9 23:27:40 2019
port hardy,42.8,87.0,75.0,16.11,50.7,-127.42,Mon Dec  9 23:27:40 2019
soyo,75.63,84.0,66.0,4.59,-6.13,12.37,Mon Dec  9 23:27:40 2019
nieuw nickerie,80.44,78.0,83.0,15.08,5.94,-56.99,Mon Dec  9 23:27:41 2019
young,73.0,64.0,0.0,6.6,-32.7,-57.63,Mon Dec  9 23:27:41 2019
jishou,60.78,55.0,35.0,4.18,28.26,109.7,Mon Dec  9 23:27:41 2019
bentiu,60.78,55.0,35.0,4.18,28.26,109.7,Mon Dec  9 23:27:41 2019
masuguru,83.91,67.0,100.0,7.74,-11.38,38.46,Mon Dec  9 23:27:41 2019
teya,70.95,94.0,5.0,6.93,21.05,-89.07,Mon Dec  9 23:27:42 2019
kushmurun,70.95,94.0,5.0,6.93,21.05,-89.07,Mon Dec  9 23:27:42 2019
aleksin,35.6,100.0,90.0,4.47,54.5,37.07,Mon Dec  9 23:27:42 2019
joao pinheiro,71.29,89.0,100.0,5.73,-17.74,-46.17,Mon Dec  9 23:27:42 2019
port moresby,87.8,66.0,75.0,17.22,-9.47,147.16,Mon Dec  9 23:27:42 2019
casian,41.95,93.0,61.0,6.93,44.5,28.48,Mon Dec  9 23:27:43 2019
puerto princesa,89.6,66.0,20.0,11.41,9.74,118.73,Mon Dec  9 23:27:43 2019
talcahuano,53.6,87.0,20.0,6.93,-36.72,-73.12,Mon Dec  9 23:27:43 2019
kysyl-syr,-32.35,96.0,30.0,3.89,63.9,122.77,Mon Dec  9 23:27:43 2019
dzhusaly,-32.35,96.0,30.0,3.89,63.9,122.77,Mon Dec  9 23:27:43 2019
fukuma,60.85,51.0,75.0,10.29,33.77,130.47,Mon Dec  9 23:27:44 2019
paradwip,60.85,51.0,75.0,10.29,33.77,130.47,Mon Dec  9 23:27:44 2019
boda,71.96,33.0,0.0,2.15,4.32,17.47,Mon Dec  9 23:27:44 2019
stephenville,40.66,86.0,90.0,12.75,48.55,-58.59,Mon Dec  9 23:27:45 2019
disna,40.66,86.0,90.0,12.75,48.55,-58.59,Mon Dec  9 23:27:45 2019
shelburne,43.36,87.0,90.0,2.24,44.08,-80.2,Mon Dec  9 23:27:45 2019
huambo,60.48,82.0,25.0,2.1,-12.78,15.73,Mon Dec  9 23:27:45 2019
peru,17.8,72.0,90.0,17.22,41.33,-89.13,Mon Dec  9 23:27:45 2019
tskaltubo,46.4,75.0,0.0,3.36,42.33,42.6,Mon Dec  9 23:27:46 2019
kismayo,46.4,75.0,0.0,3.36,42.33,42.6,Mon Dec  9 23:27:46 2019
raga,46.4,75.0,0.0,3.36,42.33,42.6,Mon Dec  9 23:27:46 2019
denpasar,89.6,66.0,20.0,12.75,-8.65,115.22,Mon Dec  9 23:25:57 2019
darhan,8.4,92.0,92.0,2.13,49.49,105.92,Mon Dec  9 23:27:47 2019
wollongong,69.82,88.0,75.0,26.4,-34.42,150.89,Mon Dec  9 23:24:21 2019
brokopondo,73.15,94.0,20.0,2.24,5.06,-54.98,Mon Dec  9 23:27:47 2019
great bend,18.59,78.0,1.0,6.93,38.36,-98.78,Mon Dec  9 23:27:47 2019
mineros,71.6,94.0,75.0,4.7,-17.12,-63.23,Mon Dec  9 23:27:48 2019
merauke,89.91,58.0,26.0,10.98,-8.49,140.4,Mon Dec  9 23:27:48 2019
villa sandino,71.85,93.0,63.0,13.31,12.05,-84.99,Mon Dec  9 23:27:48 2019
baykit,1.09,96.0,100.0,2.13,61.68,96.39,Mon Dec  9 23:27:48 2019
yefimovskiy,1.09,96.0,100.0,2.13,61.68,96.39,Mon Dec  9 23:27:48 2019
puerto del rosario,63.18,77.0,40.0,12.75,28.5,-13.86,Mon Dec  9 23:27:48 2019
urdzhar,63.18,77.0,40.0,12.75,28.5,-13.86,Mon Dec  9 23:27:48 2019
klaksvik,46.4,93.0,100.0,23.04,62.23,-6.59,Mon Dec  9 23:27:49 2019
antipovka,31.14,91.0,0.0,1.66,49.83,45.31,Mon Dec  9 23:27:49 2019
oriximina,77.32,84.0,83.0,3.83,-1.77,-55.87,Mon Dec  9 23:27:49 2019
itarema,74.48,87.0,51.0,5.17,-2.92,-39.92,Mon Dec  9 23:27:49 2019
paamiut,24.06,90.0,100.0,27.49,61.99,-49.67,Mon Dec  9 23:27:50 2019
saryshagan,24.06,90.0,100.0,27.49,61.99,-49.67,Mon Dec  9 23:27:50 2019
roald,28.63,64.0,78.0,16.11,62.58,6.12,Mon Dec  9 23:27:50 2019
tabou,75.04,93.0,42.0,0.87,4.42,-7.36,Mon Dec  9 23:27:50 2019
tabas,57.2,33.0,2.0,2.24,33.6,56.92,Mon Dec  9 23:27:50 2019
kabansk,14.0,56.0,87.0,2.24,52.06,106.65,Mon Dec  9 23:27:51 2019
pingliang,39.97,32.0,15.0,5.35,35.54,106.68,Mon Dec  9 23:27:51 2019
seara,66.2,93.0,32.0,2.48,-27.15,-52.31,Mon Dec  9 23:27:51 2019
drayton valley,15.31,94.0,100.0,1.3,53.22,-114.98,Mon Dec  9 23:27:51 2019
auki,62.83,18.0,0.0,10.04,12.18,6.51,Mon Dec  9 23:27:51 2019
kachikau,62.83,18.0,0.0,10.04,12.18,6.51,Mon Dec  9 23:27:51 2019
tottori,57.02,51.0,40.0,3.36,35.5,134.23,Mon Dec  9 23:27:52 2019
north bend,46.65,100.0,90.0,5.82,43.41,-124.22,Mon Dec  9 23:27:52 2019
marienburg,36.28,83.0,20.0,5.82,52.12,9.98,Mon Dec  9 23:27:52 2019
taybad,46.83,63.0,30.0,4.81,34.74,60.78,Mon Dec  9 23:27:53 2019
namibe,71.78,72.0,49.0,8.95,-15.19,12.15,Mon Dec  9 23:27:53 2019
tecoanapa,75.2,88.0,5.0,2.15,16.99,-99.26,Mon Dec  9 23:27:53 2019
svetlyy,75.2,88.0,5.0,2.15,16.99,-99.26,Mon Dec  9 23:27:53 2019
aldan,-1.43,98.0,99.0,2.35,58.61,125.39,Mon Dec  9 23:27:53 2019
lubango,57.43,46.0,24.0,5.1,-14.92,13.49,Mon Dec  9 23:27:54 2019
shitkino,8.96,93.0,99.0,5.79,56.37,98.35,Mon Dec  9 23:27:54 2019
haines junction,23.32,83.0,94.0,7.49,60.75,-137.51,Mon Dec  9 23:27:54 2019
boueni,87.8,79.0,20.0,11.41,-12.9,45.08,Mon Dec  9 23:27:54 2019
shaunavon,-5.24,94.0,90.0,5.03,49.65,-108.41,Mon Dec  9 23:27:54 2019
arman,9.28,70.0,12.0,13.2,59.7,150.17,Mon Dec  9 23:27:55 2019
taree,84.22,49.0,0.0,9.17,-31.91,152.46,Mon Dec  9 23:27:55 2019
ilebo,68.77,98.0,100.0,1.99,-4.33,20.59,Mon Dec  9 23:27:55 2019
san cristobal,62.02,95.0,21.0,3.06,14.68,-86.92,Mon Dec  9 23:27:55 2019
galesong,75.2,100.0,40.0,1.12,-5.32,119.37,Mon Dec  9 23:27:56 2019
zarubino,38.77,51.0,1.0,17.34,42.65,131.06,Mon Dec  9 23:27:56 2019
okhotsk,-8.43,62.0,1.0,8.3,59.36,143.24,Mon Dec  9 23:27:56 2019
rudsar,56.25,76.0,20.0,2.24,37.14,50.29,Mon Dec  9 23:27:56 2019
kjollefjord,28.42,92.0,90.0,38.03,70.95,27.35,Mon Dec  9 23:27:57 2019
jalu,57.24,74.0,0.0,14.63,29.03,21.55,Mon Dec  9 23:27:57 2019
barra patuca,80.02,81.0,24.0,12.28,15.8,-84.28,Mon Dec  9 23:27:57 2019
tongren,63.75,51.0,0.0,0.43,27.72,109.18,Mon Dec  9 23:27:57 2019
henties bay,64.99,86.0,33.0,3.0,-22.12,14.28,Mon Dec  9 23:27:57 2019
birobidzhan,8.94,83.0,74.0,4.43,48.79,132.93,Mon Dec  9 23:27:58 2019
kutum,58.26,25.0,0.0,3.91,14.2,24.66,Mon Dec  9 23:27:58 2019
chimbote,65.17,88.0,97.0,3.13,-9.08,-78.59,Mon Dec  9 23:27:58 2019
aitape,83.97,67.0,69.0,5.14,-3.15,142.36,Mon Dec  9 23:27:58 2019
balkhash,35.6,59.0,0.0,4.47,46.84,74.98,Mon Dec  9 23:27:58 2019
garden city,29.12,86.0,1.0,3.36,43.62,-116.24,Mon Dec  9 23:27:59 2019
perry,66.65,94.0,40.0,3.96,30.12,-83.58,Mon Dec  9 23:27:59 2019
saint-francois,33.4,100.0,20.0,1.68,46.42,3.91,Mon Dec  9 23:27:59 2019
ust-tsilma,34.27,94.0,100.0,8.28,65.44,52.15,Mon Dec  9 23:27:59 2019
charters towers,93.33,36.0,47.0,15.57,-20.07,146.27,Mon Dec  9 23:27:59 2019
ilo,68.61,78.0,84.0,5.53,-17.65,-71.34,Mon Dec  9 23:28:00 2019
moberly,20.05,67.0,1.0,12.75,39.42,-92.44,Mon Dec  9 23:28:00 2019
weligama,82.35,81.0,87.0,8.88,5.97,80.42,Mon Dec  9 23:28:00 2019
sojat,75.31,28.0,0.0,1.66,25.92,73.67,Mon Dec  9 23:28:00 2019
wajid,79.81,69.0,0.0,17.72,3.81,43.25,Mon Dec  9 23:28:00 2019
sistranda,33.01,86.0,40.0,6.93,63.73,8.83,Mon Dec  9 23:28:01 2019
englehart,1.4,77.0,90.0,17.22,47.82,-79.87,Mon Dec  9 23:28:01 2019
kungurtug,13.03,76.0,41.0,1.81,50.6,97.53,Mon Dec  9 23:28:01 2019
myitkyina,76.62,29.0,0.0,1.68,25.38,97.4,Mon Dec  9 23:28:01 2019
goderich,38.37,82.0,100.0,27.0,43.74,-81.71,Mon Dec  9 23:28:02 2019
darnah,66.56,61.0,2.0,12.97,32.77,22.64,Mon Dec  9 23:28:02 2019
kambove,63.88,92.0,100.0,8.99,-10.88,26.6,Mon Dec  9 23:28:02 2019
mopipi,76.28,63.0,68.0,11.21,-21.2,24.86,Mon Dec  9 23:28:02 2019
louisbourg,76.28,63.0,68.0,11.21,-21.2,24.86,Mon Dec  9 23:28:02 2019
saint-augustin,45.07,93.0,90.0,9.17,45.63,-73.98,Mon Dec  9 23:28:03 2019
boguchany,9.45,94.0,100.0,6.35,58.38,97.46,Mon Dec  9 23:28:03 2019
vanderhoof,11.14,96.0,84.0,2.42,54.02,-124.02,Mon Dec  9 23:28:03 2019
camocim,72.45,94.0,91.0,4.74,-2.9,-40.84,Mon Dec  9 23:28:03 2019
lumberton,70.57,100.0,75.0,3.36,30.27,-94.2,Mon Dec  9 23:28:03 2019
kalemie,67.33,96.0,95.0,5.23,-5.95,29.2,Mon Dec  9 23:28:04 2019
dakar,69.66,88.0,100.0,11.41,14.69,-17.45,Mon Dec  9 23:28:04 2019
boa viagem,72.16,86.0,87.0,3.78,-5.13,-39.73,Mon Dec  9 23:28:04 2019
pitimbu,75.2,88.0,50.0,2.24,-7.47,-34.81,Mon Dec  9 23:28:04 2019
leh,14.79,38.0,94.0,1.48,34.16,77.58,Mon Dec  9 23:28:04 2019
tayoltita,54.95,91.0,5.0,4.14,24.11,-105.93,Mon Dec  9 23:28:05 2019
thunder bay,-4.13,76.0,90.0,9.17,48.41,-89.26,Mon Dec  9 23:28:05 2019
beruni,-4.13,76.0,90.0,9.17,48.41,-89.26,Mon Dec  9 23:28:05 2019
mizdah,50.94,64.0,16.0,17.45,31.45,12.98,Mon Dec  9 23:28:05 2019
milazzo,54.86,76.0,75.0,2.24,38.22,15.24,Mon Dec  9 23:28:05 2019
del rio,64.04,45.0,90.0,6.93,29.36,-100.9,Mon Dec  9 23:28:06 2019
whitehorse,24.39,86.0,75.0,17.22,60.72,-135.06,Mon Dec  9 23:28:06 2019
ubinskoye,23.86,95.0,100.0,9.53,55.31,79.68,Mon Dec  9 23:28:06 2019
stokmarknes,26.6,86.0,75.0,3.36,68.56,14.91,Mon Dec  9 23:28:06 2019
beno-yurt,26.6,86.0,75.0,3.36,68.56,14.91,Mon Dec  9 23:28:06 2019
skjervoy,25.81,79.0,75.0,11.41,70.03,20.97,Mon Dec  9 23:28:07 2019
pontes e lacerda,72.52,95.0,100.0,0.47,-15.23,-59.33,Mon Dec  9 23:28:07 2019
ngukurr,72.52,95.0,100.0,0.47,-15.23,-59.33,Mon Dec  9 23:28:07 2019
bonavista,42.01,88.0,91.0,3.0,48.65,-53.11,Mon Dec  9 23:28:07 2019
ambodifototra,42.01,88.0,91.0,3.0,48.65,-53.11,Mon Dec  9 23:28:07 2019
otatitlan,73.99,85.0,0.0,2.77,18.2,-96.03,Mon Dec  9 23:28:08 2019
falealupo,73.99,85.0,0.0,2.77,18.2,-96.03,Mon Dec  9 23:28:08 2019
peniche,42.67,100.0,90.0,4.7,39.36,-9.38,Mon Dec  9 23:28:02 2019
sabang,81.0,80.0,50.0,8.99,13.8,121.11,Mon Dec  9 23:28:08 2019
anadyr,26.28,86.0,75.0,22.37,64.73,177.51,Mon Dec  9 23:28:08 2019
baiima,73.54,98.0,45.0,1.1,8.11,-11.85,Mon Dec  9 23:28:09 2019
jaen,58.84,95.0,64.0,3.0,-5.71,-78.81,Mon Dec  9 23:28:09 2019
itoman,71.85,49.0,20.0,13.87,26.12,127.67,Mon Dec  9 23:28:09 2019
namatanai,85.33,70.0,91.0,8.86,-3.66,152.44,Mon Dec  9 23:28:09 2019
arak,32.0,56.0,1.0,2.24,34.1,49.69,Mon Dec  9 23:28:09 2019
kabo,71.2,29.0,41.0,3.42,7.69,18.62,Mon Dec  9 23:28:10 2019
tawzar,71.2,29.0,41.0,3.42,7.69,18.62,Mon Dec  9 23:28:10 2019
manggar,82.99,71.0,42.0,7.38,-2.88,108.27,Mon Dec  9 23:28:10 2019
rafaela,72.37,45.0,0.0,7.94,-31.25,-61.49,Mon Dec  9 23:28:10 2019
coreau,70.99,95.0,90.0,2.84,-3.53,-40.66,Mon Dec  9 23:28:10 2019
yandoon,70.99,95.0,90.0,2.84,-3.53,-40.66,Mon Dec  9 23:28:10 2019
brandon,11.41,72.0,90.0,6.93,43.59,-96.57,Mon Dec  9 23:24:45 2019
uruzgan,33.96,87.0,100.0,1.48,32.93,66.63,Mon Dec  9 23:28:11 2019
virtsu,34.47,100.0,75.0,10.29,58.57,23.51,Mon Dec  9 23:28:11 2019
ontario,48.72,66.0,1.0,5.82,34.07,-117.65,Mon Dec  9 23:25:29 2019
poli,68.02,28.0,0.0,1.01,8.48,13.24,Mon Dec  9 23:28:12 2019
poronaysk,20.89,88.0,100.0,5.39,49.22,143.1,Mon Dec  9 23:28:12 2019
mrirt,20.89,88.0,100.0,5.39,49.22,143.1,Mon Dec  9 23:28:12 2019
tautira,77.0,78.0,90.0,3.36,-17.73,-149.15,Mon Dec  9 23:28:12 2019
mackay,15.8,100.0,75.0,2.13,53.65,-115.58,Mon Dec  9 23:28:12 2019
natal,72.46,83.0,40.0,4.7,-5.81,-35.21,Mon Dec  9 23:28:13 2019
storm lake,7.45,92.0,90.0,4.81,42.64,-95.21,Mon Dec  9 23:28:13 2019
kuching,84.2,79.0,75.0,5.82,1.56,110.34,Mon Dec  9 23:27:09 2019
bossier city,54.64,87.0,90.0,8.05,32.52,-93.73,Mon Dec  9 23:28:13 2019
salina,18.03,78.0,1.0,6.93,38.84,-97.61,Mon Dec  9 23:28:14 2019
diamantino,72.03,95.0,100.0,4.54,-14.4,-56.44,Mon Dec  9 23:28:14 2019
surajgarh,70.2,24.0,0.0,2.24,28.31,75.73,Mon Dec  9 23:25:16 2019
ibra,78.37,41.0,0.0,4.5,22.69,58.55,Mon Dec  9 23:28:14 2019
kazalinsk,78.37,41.0,0.0,4.5,22.69,58.55,Mon Dec  9 23:28:14 2019
benghazi,65.52,74.0,2.0,25.37,32.12,20.07,Mon Dec  9 23:27:14 2019
ijaki,65.52,74.0,2.0,25.37,32.12,20.07,Mon Dec  9 23:27:14 2019
algiers,69.71,94.0,90.0,6.93,29.94,-90.04,Mon Dec  9 23:24:48 2019
buariki,69.71,94.0,90.0,6.93,29.94,-90.04,Mon Dec  9 23:24:48 2019
toba,59.56,67.0,20.0,5.82,34.47,136.83,Mon Dec  9 23:28:15 2019
bathsheba,80.6,74.0,20.0,25.28,13.22,-59.52,Mon Dec  9 23:28:16 2019
marsa matruh,59.0,67.0,40.0,6.93,31.35,27.25,Mon Dec  9 23:28:16 2019
gravelbourg,-10.35,94.0,21.0,6.67,49.88,-106.56,Mon Dec  9 23:28:16 2019
kropotkin,38.53,79.0,98.0,5.64,45.43,40.58,Mon Dec  9 23:28:16 2019
havoysund,25.7,79.0,90.0,31.09,71.0,24.66,Mon Dec  9 23:28:16 2019
zambezi,68.74,89.0,80.0,8.3,-13.55,23.12,Mon Dec  9 23:28:17 2019
dovers,81.41,69.0,1.0,25.34,12.88,-61.18,Mon Dec  9 23:28:17 2019
wisconsin rapids,11.89,78.0,90.0,12.75,44.39,-89.82,Mon Dec  9 23:28:17 2019
kupang,75.2,88.0,75.0,19.46,-10.16,123.6,Mon Dec  9 23:28:17 2019
redwater,12.58,92.0,90.0,2.24,53.95,-113.11,Mon Dec  9 23:28:17 2019
coalcoman,12.58,92.0,90.0,2.24,53.95,-113.11,Mon Dec  9 23:28:17 2019
milkovo,45.73,95.0,100.0,3.36,41.53,24.68,Mon Dec  9 23:28:18 2019
sussex,53.28,100.0,90.0,38.03,45.72,-65.51,Mon Dec  9 23:26:51 2019
fenoarivo,77.0,65.0,75.0,6.93,-18.93,47.44,Mon Dec  9 23:28:18 2019
uyuni,46.96,20.0,89.0,3.15,-20.46,-66.82,Mon Dec  9 23:28:18 2019
viesca,68.31,30.0,2.0,8.7,25.34,-102.81,Mon Dec  9 23:28:19 2019
shimoda,56.79,87.0,75.0,5.82,34.7,138.93,Mon Dec  9 23:28:19 2019
kichera,4.8,81.0,2.0,5.75,55.93,110.1,Mon Dec  9 23:28:19 2019
jiaozuo,61.97,15.0,0.0,19.1,35.21,113.25,Mon Dec  9 23:28:19 2019
alexandria,38.62,85.0,99.0,2.82,43.97,25.33,Mon Dec  9 23:28:20 2019
ust-nera,-26.25,92.0,42.0,3.33,64.57,143.24,Mon Dec  9 23:28:20 2019
tateyama,57.13,66.0,75.0,4.7,36.66,137.31,Mon Dec  9 23:28:20 2019
ucluelet,45.0,92.0,100.0,3.0,48.94,-125.55,Mon Dec  9 23:25:33 2019
warin chamrap,78.39,42.0,0.0,4.7,15.19,104.86,Mon Dec  9 23:28:20 2019
lakes entrance,62.26,71.0,0.0,5.01,-37.88,147.99,Mon Dec  9 23:28:21 2019
kon tum,77.67,42.0,2.0,2.26,14.36,108.0,Mon Dec  9 23:28:21 2019
vestmanna,46.4,93.0,100.0,23.04,62.16,-7.17,Mon Dec  9 23:28:21 2019
marakkanam,86.0,70.0,40.0,11.41,12.2,79.95,Mon Dec  9 23:28:21 2019
khandyga,-34.06,95.0,77.0,0.65,62.65,135.58,Mon Dec  9 23:28:21 2019
bilma,60.24,21.0,85.0,13.49,18.69,12.92,Mon Dec  9 23:28:22 2019
sept-iles,33.91,97.0,90.0,20.8,50.2,-66.38,Mon Dec  9 23:23:43 2019
bellmead,45.19,65.0,90.0,14.99,31.59,-97.11,Mon Dec  9 23:28:22 2019
kerki,45.19,65.0,90.0,14.99,31.59,-97.11,Mon Dec  9 23:28:22 2019
sadao,87.15,58.0,75.0,14.99,6.63,100.42,Mon Dec  9 23:28:22 2019
sangueya,73.9,83.0,55.0,1.79,10.7,-14.37,Mon Dec  9 23:28:23 2019
ottawa,45.48,100.0,90.0,11.41,45.42,-75.69,Mon Dec  9 23:26:59 2019
kirkuk,48.92,72.0,100.0,6.06,35.47,44.4,Mon Dec  9 23:28:23 2019
inuvik,-5.8,70.0,40.0,10.29,68.36,-133.71,Mon Dec  9 23:28:23 2019
zatoka,39.78,80.0,75.0,10.29,50.04,20.52,Mon Dec  9 23:28:23 2019
ust-kamchatsk,39.78,80.0,75.0,10.29,50.04,20.52,Mon Dec  9 23:28:23 2019
mecca,71.49,58.0,0.0,1.81,21.43,39.83,Mon Dec  9 23:28:24 2019
kenitra,53.49,93.0,75.0,8.05,34.26,-6.57,Mon Dec  9 23:28:24 2019
oschersleben,37.49,86.0,90.0,10.29,52.03,11.25,Mon Dec  9 23:28:24 2019
buchanan,73.4,94.0,75.0,1.97,5.88,-10.05,Mon Dec  9 23:28:24 2019
razole,83.23,51.0,18.0,6.91,16.48,81.84,Mon Dec  9 23:28:25 2019
coahuayana,69.17,69.0,12.0,2.91,18.62,-100.35,Mon Dec  9 23:28:25 2019
yerbogachen,-9.06,97.0,67.0,6.24,61.28,108.01,Mon Dec  9 23:28:25 2019
guangyuan,53.01,48.0,2.0,1.01,32.43,105.86,Mon Dec  9 23:28:25 2019
buta,74.57,66.0,45.0,1.21,2.79,24.73,Mon Dec  9 23:28:26 2019
gold coast,83.98,69.0,0.0,16.11,-28.0,153.41,Mon Dec  9 23:28:26 2019
bataipora,70.02,97.0,100.0,2.64,-22.3,-53.27,Mon Dec  9 23:28:26 2019
peshkopi,46.72,93.0,90.0,3.36,41.68,20.43,Mon Dec  9 23:28:26 2019
chimoio,75.2,88.0,75.0,6.98,-19.11,33.48,Mon Dec  9 23:28:26 2019
muriwai beach,65.23,55.0,17.0,12.75,-36.82,174.45,Mon Dec  9 23:28:26 2019
puerto suarez,73.13,98.0,100.0,2.8,-18.96,-57.8,Mon Dec  9 23:28:27 2019
tonj,73.13,98.0,100.0,2.8,-18.96,-57.8,Mon Dec  9 23:28:27 2019
bargal,73.13,98.0,100.0,2.8,-18.96,-57.8,Mon Dec  9 23:28:27 2019
strizhi,35.22,95.0,100.0,12.24,58.46,49.29,Mon Dec  9 23:28:27 2019
banmo,35.22,95.0,100.0,12.24,58.46,49.29,Mon Dec  9 23:28:27 2019
mitu,29.98,97.0,82.0,4.43,36.2,46.09,Mon Dec  9 23:28:28 2019
altoona,51.78,81.0,90.0,14.99,40.52,-78.39,Mon Dec  9 23:28:28 2019
kikwit,71.17,94.0,98.0,1.68,-5.04,18.82,Mon Dec  9 23:28:28 2019
tambul,71.17,94.0,98.0,1.68,-5.04,18.82,Mon Dec  9 23:28:28 2019
pushkino,37.44,100.0,90.0,8.95,56.01,37.85,Mon Dec  9 23:28:29 2019
datong,30.09,45.0,0.0,12.28,40.09,113.3,Mon Dec  9 23:28:29 2019
ust-barguzin,14.94,82.0,97.0,4.25,53.41,109.03,Mon Dec  9 23:28:29 2019
point pedro,80.04,77.0,100.0,19.44,9.82,80.23,Mon Dec  9 23:28:29 2019
orocue,74.7,85.0,85.0,6.13,4.79,-71.34,Mon Dec  9 23:28:30 2019
haikou,73.4,49.0,30.0,13.42,20.04,110.34,Mon Dec  9 23:28:30 2019
port-gentil,80.6,94.0,75.0,8.05,-0.72,8.78,Mon Dec  9 23:28:30 2019
san joaquin,82.94,79.0,78.0,3.29,10.59,122.14,Mon Dec  9 23:28:30 2019
le creusot,33.24,100.0,20.0,0.67,46.81,4.43,Mon Dec  9 23:28:31 2019
julio de castilhos,64.0,79.0,1.0,4.43,-29.23,-53.68,Mon Dec  9 23:28:31 2019
lokoja,73.69,39.0,33.0,2.8,7.8,6.74,Mon Dec  9 23:28:31 2019
reitz,53.29,95.0,100.0,10.29,-27.8,28.43,Mon Dec  9 23:28:31 2019
maloye kozino,53.29,95.0,100.0,10.29,-27.8,28.43,Mon Dec  9 23:28:31 2019
kaeo,64.45,94.0,0.0,1.01,-35.1,173.78,Mon Dec  9 23:28:32 2019
iranshahr,69.8,68.0,40.0,4.7,27.21,60.69,Mon Dec  9 23:28:32 2019
sinnamary,80.87,80.0,6.0,17.22,5.38,-52.96,Mon Dec  9 23:28:32 2019
juifang,80.87,80.0,6.0,17.22,5.38,-52.96,Mon Dec  9 23:28:32 2019
mbuji-mayi,70.68,90.0,97.0,2.3,-6.13,23.6,Mon Dec  9 23:28:32 2019
kalianget,86.99,59.0,20.0,12.75,-7.35,109.91,Mon Dec  9 23:28:32 2019
mana,62.58,17.0,0.0,7.9,13.03,5.27,Mon Dec  9 23:28:33 2019
tsalka,22.26,60.0,0.0,5.46,41.6,44.09,Mon Dec  9 23:28:33 2019
guadalupe y calvo,46.8,98.0,56.0,7.29,26.09,-106.96,Mon Dec  9 23:28:33 2019
kapit,91.53,46.0,57.0,4.07,2.02,112.94,Mon Dec  9 23:28:33 2019
sedelnikovo,91.53,46.0,57.0,4.07,2.02,112.94,Mon Dec  9 23:28:33 2019
oranjemund,64.49,68.0,71.0,3.2,-28.55,16.43,Mon Dec  9 23:28:34 2019
wagar,68.65,80.0,100.0,6.29,31.44,-87.99,Mon Dec  9 23:28:34 2019
mogadishu,84.2,66.0,75.0,14.99,2.04,45.34,Mon Dec  9 23:25:24 2019
huicungo,62.62,97.0,100.0,2.75,-7.28,-76.8,Mon Dec  9 23:28:34 2019
pirovskoye,25.11,91.0,100.0,12.24,57.63,92.27,Mon Dec  9 23:28:34 2019
qaqortoq,26.6,68.0,100.0,10.29,60.72,-46.03,Mon Dec  9 23:28:35 2019
aci castello,49.46,81.0,40.0,5.82,37.55,15.15,Mon Dec  9 23:28:35 2019
hede,23.5,79.0,0.0,10.29,60.45,15.49,Mon Dec  9 23:28:35 2019
vilhena,69.78,90.0,100.0,1.36,-12.74,-60.15,Mon Dec  9 23:28:35 2019
terney,32.72,82.0,79.0,3.24,45.05,136.61,Mon Dec  9 23:28:36 2019
tongliao,26.89,58.0,100.0,4.12,43.61,122.27,Mon Dec  9 23:28:36 2019
batemans bay,75.56,80.0,62.0,5.01,-35.71,150.18,Mon Dec  9 23:28:36 2019
el cope,66.99,70.0,21.0,5.99,8.69,-82.32,Mon Dec  9 23:28:36 2019
tamandare,72.3,97.0,99.0,0.81,-8.28,-70.75,Mon Dec  9 23:28:36 2019
caazapa,68.13,96.0,18.0,1.92,-26.15,-56.4,Mon Dec  9 23:28:37 2019
limon,21.61,73.0,1.0,4.7,39.26,-103.69,Mon Dec  9 23:28:37 2019
mallama,21.61,73.0,1.0,4.7,39.26,-103.69,Mon Dec  9 23:28:37 2019
alihe,2.05,76.0,0.0,2.84,50.57,123.73,Mon Dec  9 23:28:37 2019
monywa,73.78,48.0,0.0,4.54,22.12,95.13,Mon Dec  9 23:28:37 2019
calama,46.4,39.0,20.0,14.99,-22.46,-68.93,Mon Dec  9 23:27:54 2019
nantucket,54.9,93.0,90.0,19.46,41.28,-70.1,Mon Dec  9 23:25:32 2019
kargasok,24.44,92.0,99.0,11.56,59.06,80.87,Mon Dec  9 23:28:38 2019
luoyang,59.43,17.0,0.0,16.53,34.66,112.42,Mon Dec  9 23:28:38 2019
karaul,59.43,17.0,0.0,16.53,34.66,112.42,Mon Dec  9 23:28:38 2019
urengoy,17.37,95.0,43.0,11.54,65.96,78.37,Mon Dec  9 23:28:39 2019
tsibanobalka,42.71,100.0,92.0,2.24,44.98,37.33,Mon Dec  9 23:28:39 2019
lianran,58.37,35.0,0.0,11.18,24.92,102.47,Mon Dec  9 23:28:39 2019
pueblo bello,70.93,98.0,16.0,0.63,8.2,-76.53,Mon Dec  9 23:28:39 2019
canala,77.0,57.0,100.0,9.17,-21.52,165.96,Mon Dec  9 23:28:39 2019
benjamin hill,44.94,88.0,0.0,1.99,30.17,-111.1,Mon Dec  9 23:28:40 2019
imeni poliny osipenko,-3.03,93.0,99.0,2.17,52.42,136.49,Mon Dec  9 23:28:40 2019
polson,29.03,86.0,90.0,2.13,47.69,-114.16,Mon Dec  9 23:28:40 2019
peace river,14.54,85.0,90.0,2.24,56.23,-117.29,Mon Dec  9 23:28:40 2019
rivers,-14.8,68.0,5.0,6.93,50.03,-100.23,Mon Dec  9 23:28:40 2019
rajec,36.03,100.0,90.0,1.12,49.09,18.64,Mon Dec  9 23:28:41 2019
quatre cocos,86.56,74.0,75.0,16.11,-20.21,57.76,Mon Dec  9 23:28:41 2019
yucca valley,46.27,75.0,1.0,4.81,34.12,-116.41,Mon Dec  9 23:28:41 2019
barguzin,11.23,90.0,88.0,7.07,53.62,109.63,Mon Dec  9 23:28:41 2019
rolla,23.23,62.0,1.0,10.29,37.95,-91.77,Mon Dec  9 23:26:15 2019
redmond,39.81,86.0,90.0,2.42,47.67,-122.12,Mon Dec  9 23:24:16 2019
bihariganj,75.51,34.0,0.0,5.64,25.73,86.98,Mon Dec  9 23:28:42 2019
homer,40.84,74.0,40.0,12.75,59.64,-151.54,Mon Dec  9 23:28:42 2019
gijon,41.34,75.0,100.0,5.82,43.54,-5.66,Mon Dec  9 23:28:23 2019
vasilsursk,34.3,94.0,100.0,10.58,56.13,46.01,Mon Dec  9 23:28:42 2019
sarka ghat,65.77,29.0,89.0,4.0,31.7,76.73,Mon Dec  9 23:28:43 2019
smithers,19.4,85.0,40.0,3.36,54.78,-127.17,Mon Dec  9 23:26:49 2019
kota bahru,19.4,85.0,40.0,3.36,54.78,-127.17,Mon Dec  9 23:26:49 2019
la tuque,37.96,96.0,100.0,10.27,47.44,-72.79,Mon Dec  9 23:28:43 2019
altamira,71.31,97.0,35.0,1.72,-3.2,-52.21,Mon Dec  9 23:28:44 2019
port hedland,95.0,41.0,9.0,18.34,-20.31,118.58,Mon Dec  9 23:28:44 2019
kenai,32.22,91.0,1.0,4.7,60.55,-151.26,Mon Dec  9 23:28:44 2019
ambon,47.77,100.0,90.0,6.93,47.55,-2.56,Mon Dec  9 23:28:44 2019
karkaralinsk,47.77,100.0,90.0,6.93,47.55,-2.56,Mon Dec  9 23:28:44 2019
faya,65.37,72.0,75.0,8.05,18.39,42.45,Mon Dec  9 23:28:45 2019
waingapu,84.52,67.0,0.0,1.68,-9.65,120.26,Mon Dec  9 23:28:45 2019
maturin,70.09,97.0,72.0,4.7,9.75,-63.18,Mon Dec  9 23:25:10 2019
niamey,68.0,15.0,0.0,5.82,13.52,2.11,Mon Dec  9 23:28:45 2019
odweyne,68.0,15.0,0.0,5.82,13.52,2.11,Mon Dec  9 23:28:45 2019
utiroa,68.0,15.0,0.0,5.82,13.52,2.11,Mon Dec  9 23:28:45 2019
vila velha,82.06,78.0,20.0,6.93,-3.71,-38.6,Mon Dec  9 23:28:46 2019
apiai,59.99,98.0,100.0,1.48,-24.51,-48.84,Mon Dec  9 23:26:04 2019
pell city,65.79,100.0,100.0,8.05,33.59,-86.29,Mon Dec  9 23:28:46 2019
san francisco,50.56,95.0,99.0,1.59,1.17,-76.88,Mon Dec  9 23:27:03 2019
shieli,48.65,55.0,77.0,13.56,44.18,66.74,Mon Dec  9 23:28:47 2019
sao sebastiao do paraiso,66.2,93.0,100.0,3.0,-20.92,-46.99,Mon Dec  9 23:28:47 2019
cahors,31.96,87.0,0.0,2.73,44.45,1.44,Mon Dec  9 23:28:47 2019
taltal,54.86,90.0,13.0,4.63,-25.41,-70.49,Mon Dec  9 23:28:47 2019
villa bruzual,71.15,90.0,99.0,5.91,9.33,-69.12,Mon Dec  9 23:28:47 2019
kodinsk,5.7,91.0,100.0,8.88,58.6,99.18,Mon Dec  9 23:28:48 2019
riohacha,77.14,85.0,98.0,12.91,11.54,-72.91,Mon Dec  9 23:28:48 2019
salinopolis,81.64,78.0,0.0,16.22,-0.61,-47.36,Mon Dec  9 23:28:48 2019
tornio,27.57,92.0,75.0,5.82,61.12,27.27,Mon Dec  9 23:28:48 2019
matiri,68.18,83.0,89.0,1.19,0.58,30.76,Mon Dec  9 23:28:48 2019
amla,76.19,40.0,47.0,2.8,21.92,78.13,Mon Dec  9 23:28:49 2019
chagda,76.19,40.0,47.0,2.8,21.92,78.13,Mon Dec  9 23:28:49 2019
moroni,58.3,72.0,75.0,6.93,35.09,24.92,Mon Dec  9 23:28:49 2019
houma,49.73,23.0,0.0,10.76,35.63,111.36,Mon Dec  9 23:28:49 2019
oksfjord,25.57,58.0,75.0,10.29,70.24,22.35,Mon Dec  9 23:28:50 2019
bonfim,78.46,70.0,100.0,12.59,3.36,-59.84,Mon Dec  9 23:28:50 2019
yaypan,53.51,25.0,98.0,1.9,40.38,70.82,Mon Dec  9 23:28:50 2019
tuni,41.0,93.0,75.0,8.05,-16.67,-68.14,Mon Dec  9 23:28:50 2019
mujiayingzi,26.87,84.0,98.0,9.57,42.12,118.78,Mon Dec  9 23:28:51 2019
cascais,42.94,75.0,13.0,4.7,38.7,-9.42,Mon Dec  9 23:28:51 2019
bolungarvik,42.94,75.0,13.0,4.7,38.7,-9.42,Mon Dec  9 23:28:51 2019
colesberg,63.54,68.0,74.0,7.43,-30.72,25.1,Mon Dec  9 23:28:51 2019
colares,42.96,75.0,1.0,4.7,38.8,-9.45,Mon Dec  9 23:28:52 2019
rurrenabaque,71.89,99.0,100.0,0.51,-14.44,-67.53,Mon Dec  9 23:28:52 2019
beaver dam,20.32,85.0,90.0,13.87,43.46,-88.84,Mon Dec  9 23:28:52 2019
abu kamal,54.16,64.0,20.0,4.59,34.45,40.92,Mon Dec  9 23:28:52 2019
dinan,43.21,93.0,90.0,16.11,48.45,-2.05,Mon Dec  9 23:28:52 2019
aden,84.16,62.0,0.0,15.43,12.79,45.03,Mon Dec  9 23:23:54 2019
robore,70.86,92.0,98.0,3.38,-18.33,-59.76,Mon Dec  9 23:28:53 2019
marrakesh,44.6,93.0,0.0,3.36,31.63,-7.99,Mon Dec  9 23:28:53 2019
sataua,44.6,93.0,0.0,3.36,31.63,-7.99,Mon Dec  9 23:28:53 2019
victoria point,84.06,65.0,0.0,19.46,-27.58,153.3,Mon Dec  9 23:28:53 2019
babanusah,84.06,65.0,0.0,19.46,-27.58,153.3,Mon Dec  9 23:28:53 2019
pamfila,84.06,65.0,0.0,19.46,-27.58,153.3,Mon Dec  9 23:28:53 2019
fernley,28.69,84.0,20.0,3.36,39.61,-119.25,Mon Dec  9 23:28:54 2019
oktyabrskoye,24.94,92.0,90.0,11.18,56.73,85.44,Mon Dec  9 23:28:54 2019
kaabong,67.32,78.0,88.0,12.57,3.51,34.14,Mon Dec  9 23:28:54 2019
celestun,76.32,75.0,0.0,18.86,20.87,-90.4,Mon Dec  9 23:28:55 2019
gulfport,67.42,100.0,90.0,6.93,30.37,-89.09,Mon Dec  9 23:28:47 2019
chandpur,76.93,46.0,0.0,3.22,23.22,90.65,Mon Dec  9 23:28:55 2019
tatawin,76.93,46.0,0.0,3.22,23.22,90.65,Mon Dec  9 23:28:55 2019
abu zabad,69.71,20.0,1.0,12.8,12.35,29.25,Mon Dec  9 23:28:55 2019
maple creek,4.23,91.0,52.0,4.27,49.91,-109.46,Mon Dec  9 23:28:56 2019
hoquiam,42.48,100.0,75.0,9.17,46.98,-123.89,Mon Dec  9 23:28:56 2019
shar,70.57,38.0,67.0,4.68,7.3,8.73,Mon Dec  9 23:28:56 2019
talara,70.27,88.0,99.0,17.85,-4.58,-81.27,Mon Dec  9 23:28:56 2019
dabhol,81.52,60.0,1.0,3.29,17.6,73.17,Mon Dec  9 23:28:56 2019
kochi,89.6,46.0,50.0,6.93,9.96,76.25,Mon Dec  9 23:28:57 2019
valadares,60.8,93.0,75.0,4.7,-25.53,-48.5,Mon Dec  9 23:28:57 2019
urusha,-6.75,92.0,96.0,3.65,54.05,122.9,Mon Dec  9 23:28:57 2019
oistins,80.6,74.0,20.0,25.28,13.07,-59.53,Mon Dec  9 23:28:57 2019
marsabit,78.17,59.0,75.0,18.97,2.34,37.99,Mon Dec  9 23:28:57 2019
noumea,77.0,57.0,34.0,9.17,-22.28,166.46,Mon Dec  9 23:28:58 2019
sabha,51.19,72.0,75.0,7.4,27.03,14.43,Mon Dec  9 23:28:58 2019
maralal,61.99,92.0,99.0,4.94,1.1,36.7,Mon Dec  9 23:28:58 2019
filadelfia,73.49,91.0,36.0,4.41,-22.35,-60.04,Mon Dec  9 23:28:58 2019
pulaski,48.43,100.0,90.0,3.31,37.05,-80.78,Mon Dec  9 23:28:58 2019
dharchula,49.48,28.0,23.0,6.46,29.85,80.53,Mon Dec  9 23:28:59 2019
ryomgard,28.8,92.0,6.0,1.12,56.38,10.5,Mon Dec  9 23:28:59 2019
nichinan,59.83,63.0,75.0,3.36,31.65,131.31,Mon Dec  9 23:28:59 2019
walvis bay,64.08,88.0,75.0,4.7,-22.95,14.51,Mon Dec  9 23:28:59 2019
wulanhaote,64.08,88.0,75.0,4.7,-22.95,14.51,Mon Dec  9 23:28:59 2019
tasbuget,64.08,88.0,75.0,4.7,-22.95,14.51,Mon Dec  9 23:28:59 2019
kemijarvi,64.08,88.0,75.0,4.7,-22.95,14.51,Mon Dec  9 23:28:59 2019
zihuatanejo,78.12,79.0,33.0,5.97,17.64,-101.55,Mon Dec  9 23:29:00 2019
unity,-11.0,81.0,0.0,1.01,52.44,-109.15,Mon Dec  9 23:29:00 2019
ayan,25.21,67.0,94.0,2.42,38.23,44.7,Mon Dec  9 23:29:01 2019
kilosa,79.86,75.0,100.0,2.19,-6.84,36.99,Mon Dec  9 23:29:01 2019
condega,63.05,97.0,100.0,3.51,13.36,-86.4,Mon Dec  9 23:29:01 2019
yeletskiy,63.05,97.0,100.0,3.51,13.36,-86.4,Mon Dec  9 23:29:01 2019
kokopo,85.46,72.0,25.0,11.27,-4.34,152.27,Mon Dec  9 23:29:01 2019
zhezkazgan,28.4,92.0,75.0,8.95,47.8,67.71,Mon Dec  9 23:29:02 2019
yekaterinovka,40.41,87.0,100.0,6.53,46.69,38.75,Mon Dec  9 23:29:02 2019
jyvaskyla,40.41,87.0,100.0,6.53,46.69,38.75,Mon Dec  9 23:29:02 2019
anapskaya,42.66,100.0,92.0,2.24,44.9,37.38,Mon Dec  9 23:29:02 2019
cap malheureux,86.5,74.0,75.0,16.11,-19.98,57.61,Mon Dec  9 23:29:02 2019
piacabucu,77.14,81.0,0.0,9.55,-10.41,-36.43,Mon Dec  9 23:29:03 2019
kuruman,67.3,58.0,0.0,2.01,-27.46,23.43,Mon Dec  9 23:29:03 2019
amalapuram,84.2,58.0,40.0,6.93,16.58,82.0,Mon Dec  9 23:29:03 2019
kiama,68.9,64.0,75.0,14.99,-34.67,150.86,Mon Dec  9 23:29:03 2019
kalevala,21.18,95.0,99.0,7.38,64.12,29.58,Mon Dec  9 23:29:04 2019
mollendo,63.23,83.0,87.0,5.37,-17.03,-72.02,Mon Dec  9 23:29:04 2019
gualaquiza,60.39,99.0,40.0,0.36,-3.4,-78.58,Mon Dec  9 23:29:04 2019
ibarra,55.4,100.0,90.0,2.24,0.35,-78.12,Mon Dec  9 23:29:04 2019
basay,85.95,71.0,100.0,3.67,9.41,122.64,Mon Dec  9 23:29:04 2019
lam luk ka,83.59,39.0,0.0,4.7,13.93,100.75,Mon Dec  9 23:29:05 2019
boffa,74.14,80.0,66.0,4.43,10.18,-14.04,Mon Dec  9 23:29:05 2019
verkhnetulomskiy,15.8,85.0,75.0,11.18,68.61,31.8,Mon Dec  9 23:29:05 2019
barcelona,42.49,75.0,0.0,3.36,41.38,2.18,Mon Dec  9 23:29:05 2019
parras,42.49,75.0,0.0,3.36,41.38,2.18,Mon Dec  9 23:29:05 2019
jesus carranza,41.54,100.0,1.0,5.12,31.49,-106.24,Mon Dec  9 23:29:06 2019
glenwood springs,21.69,85.0,20.0,5.82,39.55,-107.33,Mon Dec  9 23:29:06 2019
segezha,27.25,82.0,97.0,12.84,63.74,34.31,Mon Dec  9 23:29:06 2019
gumdag,51.58,65.0,62.0,9.24,39.2,54.59,Mon Dec  9 23:29:06 2019
kang,75.6,53.0,18.0,3.09,-23.67,22.79,Mon Dec  9 23:29:07 2019
astana,17.6,92.0,75.0,3.62,51.13,71.43,Mon Dec  9 23:29:07 2019
shawnee,32.04,41.0,1.0,8.05,35.33,-96.93,Mon Dec  9 23:29:07 2019
kashi,32.04,41.0,1.0,8.05,35.33,-96.93,Mon Dec  9 23:29:07 2019
khalkhal,28.11,87.0,16.0,3.0,37.62,48.53,Mon Dec  9 23:29:07 2019
play cu,28.11,87.0,16.0,3.0,37.62,48.53,Mon Dec  9 23:29:07 2019
tezpur,72.73,55.0,3.0,2.89,26.62,92.79,Mon Dec  9 23:29:08 2019
inhambane,80.6,74.0,75.0,11.41,-23.87,35.38,Mon Dec  9 23:29:08 2019
at-bashi,19.89,54.0,100.0,0.69,41.17,75.81,Mon Dec  9 23:29:08 2019
pacasmayo,67.73,85.0,99.0,13.42,-7.4,-79.57,Mon Dec  9 23:29:08 2019
barreiras,68.7,86.0,24.0,2.44,-12.14,-45.0,Mon Dec  9 23:29:09 2019
madimba,77.0,94.0,75.0,1.12,4.42,9.93,Mon Dec  9 23:29:09 2019
kalmunai,81.82,75.0,58.0,12.17,7.42,81.82,Mon Dec  9 23:29:09 2019
burns lake,17.37,92.0,100.0,2.93,54.23,-125.76,Mon Dec  9 23:25:12 2019
smidovich,6.69,83.0,71.0,12.59,48.6,133.81,Mon Dec  9 23:29:09 2019
ichinohe,42.13,71.0,20.0,9.17,40.14,141.28,Mon Dec  9 23:29:10 2019
sungairaya,84.29,72.0,37.0,5.53,0.7,108.9,Mon Dec  9 23:29:10 2019
bosaso,80.6,83.0,40.0,11.41,11.28,49.18,Mon Dec  9 23:29:10 2019
orimattila,28.11,92.0,75.0,5.82,60.8,25.73,Mon Dec  9 23:29:10 2019
garowe,78.3,57.0,49.0,9.22,8.41,48.48,Mon Dec  9 23:29:10 2019
dongsheng,63.84,49.0,100.0,1.88,29.72,112.52,Mon Dec  9 23:29:11 2019
araguatins,63.84,49.0,100.0,1.88,29.72,112.52,Mon Dec  9 23:29:11 2019
kharp,19.44,96.0,100.0,2.51,66.82,65.8,Mon Dec  9 23:29:11 2019
weinan,55.56,19.0,0.0,4.47,34.5,109.46,Mon Dec  9 23:29:11 2019
el mante,50.0,76.0,5.0,2.46,20.61,-103.43,Mon Dec  9 23:29:11 2019
yuxia,55.6,19.0,0.0,4.47,34.06,108.63,Mon Dec  9 23:29:12 2019
alyangula,89.6,59.0,75.0,6.93,-13.85,136.42,Mon Dec  9 23:29:12 2019
vila,41.61,39.0,5.0,16.11,45.18,8.4,Mon Dec  9 23:29:12 2019
puerto madryn,68.11,34.0,99.0,23.78,-42.77,-65.04,Mon Dec  9 23:29:12 2019
waddan,53.08,72.0,0.0,11.9,29.16,16.14,Mon Dec  9 23:29:12 2019
bairiki,53.08,72.0,0.0,11.9,29.16,16.14,Mon Dec  9 23:29:12 2019
ishurdi,77.65,33.0,0.0,5.06,24.13,89.07,Mon Dec  9 23:29:13 2019
praia,69.8,83.0,75.0,3.36,-20.25,-43.81,Mon Dec  9 23:29:13 2019
pundaguitan,82.81,71.0,100.0,0.45,6.37,126.17,Mon Dec  9 23:29:13 2019
santa,81.12,62.0,0.0,5.35,17.49,120.43,Mon Dec  9 23:29:14 2019
clinton,52.99,100.0,90.0,9.17,41.28,-72.53,Mon Dec  9 23:27:32 2019
santa catarina ixtahuacan,48.0,98.0,45.0,1.12,14.8,-91.37,Mon Dec  9 23:29:14 2019
cheuskiny,48.0,98.0,45.0,1.12,14.8,-91.37,Mon Dec  9 23:29:14 2019
tahta,48.0,98.0,45.0,1.12,14.8,-91.37,Mon Dec  9 23:29:14 2019
puquio,42.75,75.0,100.0,0.51,-14.69,-74.12,Mon Dec  9 23:29:15 2019
coos bay,46.53,100.0,90.0,5.82,43.37,-124.22,Mon Dec  9 23:29:15 2019
san policarpo,81.72,83.0,99.0,7.76,12.18,125.51,Mon Dec  9 23:29:15 2019
port hawkesbury,50.63,81.0,75.0,23.04,45.62,-61.36,Mon Dec  9 23:29:15 2019
huicheng,73.4,43.0,0.0,6.71,23.03,116.29,Mon Dec  9 23:29:16 2019
jalalabad,62.6,33.0,75.0,2.04,34.43,70.46,Mon Dec  9 23:29:16 2019
vagur,47.95,91.0,100.0,44.45,61.47,-6.81,Mon Dec  9 23:29:16 2019
maebaru,60.85,51.0,75.0,10.29,33.55,130.2,Mon Dec  9 23:29:16 2019
penzance,51.58,93.0,40.0,20.8,50.12,-5.53,Mon Dec  9 23:29:17 2019
hofn,39.11,96.0,100.0,15.86,64.25,-15.21,Mon Dec  9 23:29:17 2019
christchurch,58.14,72.0,29.0,20.8,-43.53,172.64,Mon Dec  9 23:29:17 2019
hami,35.24,32.0,13.0,1.5,42.84,93.51,Mon Dec  9 23:29:17 2019
meybod,48.2,42.0,75.0,2.24,32.25,54.02,Mon Dec  9 23:29:17 2019
havre-saint-pierre,35.6,100.0,90.0,10.29,50.23,-63.6,Mon Dec  9 23:29:18 2019
umm kaddadah,63.37,25.0,6.0,13.96,13.6,26.69,Mon Dec  9 23:29:18 2019
brae,44.6,87.0,20.0,34.45,60.4,-1.35,Mon Dec  9 23:29:18 2019
ixmiquilpan,58.23,43.0,0.0,3.94,20.48,-99.22,Mon Dec  9 23:29:18 2019
tevaitoa,81.63,71.0,100.0,0.38,-16.78,-151.5,Mon Dec  9 23:29:18 2019
bima,86.81,56.0,25.0,1.14,-8.45,118.73,Mon Dec  9 23:29:19 2019
nisia floresta,72.37,83.0,40.0,4.7,-6.09,-35.21,Mon Dec  9 23:29:19 2019
launceston,63.86,55.0,38.0,21.92,-41.43,147.14,Mon Dec  9 23:26:50 2019
chulman,-1.59,97.0,100.0,1.95,56.84,124.9,Mon Dec  9 23:29:19 2019
mayumba,79.65,77.0,91.0,8.08,-3.44,10.65,Mon Dec  9 23:29:19 2019
kununurra,89.6,43.0,75.0,13.87,-15.77,128.74,Mon Dec  9 23:29:20 2019
halifax,51.08,93.0,90.0,31.09,44.65,-63.58,Mon Dec  9 23:24:36 2019
camopi,70.38,99.0,39.0,2.66,3.17,-52.33,Mon Dec  9 23:29:20 2019
grimari,70.38,99.0,39.0,2.66,3.17,-52.33,Mon Dec  9 23:29:20 2019
le vauclin,75.88,83.0,0.0,10.29,14.55,-60.84,Mon Dec  9 23:29:20 2019
harrison,45.12,86.0,90.0,18.34,39.26,-84.82,Mon Dec  9 23:29:21 2019
amberley,58.32,72.0,54.0,20.8,-43.15,172.73,Mon Dec  9 23:29:21 2019
sakakah,58.32,72.0,54.0,20.8,-43.15,172.73,Mon Dec  9 23:29:21 2019
albury,90.73,9.0,21.0,13.87,-36.08,146.92,Mon Dec  9 23:29:21 2019
contramaestre,73.4,94.0,20.0,8.05,20.3,-76.25,Mon Dec  9 23:29:21 2019
santa barbara,48.97,87.0,1.0,8.05,34.42,-119.7,Mon Dec  9 23:29:22 2019
sioux lookout,-9.89,75.0,75.0,2.24,50.1,-91.92,Mon Dec  9 23:29:22 2019
ostersund,20.32,85.0,0.0,16.11,63.18,14.64,Mon Dec  9 23:29:22 2019
qeshm,72.46,69.0,90.0,7.02,26.96,56.27,Mon Dec  9 23:29:22 2019
zaysan,16.57,87.0,0.0,1.57,47.47,84.87,Mon Dec  9 23:29:22 2019
taunggyi,70.07,37.0,0.0,5.01,20.78,97.03,Mon Dec  9 23:29:23 2019
cagayan de tawi-tawi,70.07,37.0,0.0,5.01,20.78,97.03,Mon Dec  9 23:29:23 2019
west bay,37.24,93.0,75.0,6.93,49.34,-123.21,Mon Dec  9 23:29:23 2019
novyy urgal,4.46,91.0,100.0,6.44,51.07,132.56,Mon Dec  9 23:29:23 2019
shingu,60.8,63.0,75.0,3.36,33.72,135.99,Mon Dec  9 23:29:23 2019
san carlos,73.0,1.0,34.0,17.0,11.12,-84.78,Mon Dec  9 23:29:24 2019
biak,86.72,61.0,67.0,8.37,-0.91,122.88,Mon Dec  9 23:29:24 2019
gabu,27.55,15.0,0.0,6.11,34.78,103.0,Mon Dec  9 23:29:24 2019
wenchi,70.63,96.0,8.0,3.38,7.74,-2.1,Mon Dec  9 23:29:24 2019
grand gaube,86.49,74.0,75.0,16.11,-20.01,57.66,Mon Dec  9 23:29:24 2019
tello,58.87,70.0,33.0,5.53,3.07,-75.14,Mon Dec  9 23:29:25 2019
haademeeste,58.87,70.0,33.0,5.53,3.07,-75.14,Mon Dec  9 23:29:25 2019
chortomlyk,40.03,91.0,68.0,8.97,47.62,34.14,Mon Dec  9 23:29:25 2019
baruun-urt,14.43,79.0,66.0,6.62,46.68,113.28,Mon Dec  9 23:29:25 2019
thinadhoo,82.89,78.0,67.0,11.92,0.53,72.93,Mon Dec  9 23:29:25 2019
bobcaygeon,44.76,93.0,90.0,6.93,44.54,-78.55,Mon Dec  9 23:29:26 2019
mastic beach,52.72,93.0,90.0,16.11,40.77,-72.85,Mon Dec  9 23:29:26 2019
terrell,37.85,60.0,90.0,18.34,32.74,-96.28,Mon Dec  9 23:29:26 2019
chibombo,68.88,91.0,96.0,4.92,-14.68,28.09,Mon Dec  9 23:29:26 2019
berbera,68.88,91.0,96.0,4.92,-14.68,28.09,Mon Dec  9 23:29:26 2019
mananara,68.88,91.0,96.0,4.92,-14.68,28.09,Mon Dec  9 23:29:26 2019
prudnik,37.26,64.0,88.0,3.0,50.32,17.58,Mon Dec  9 23:29:27 2019
matagami,59.0,38.0,25.0,5.82,9.67,8.4,Mon Dec  9 23:29:27 2019
cihuatlan,77.23,77.0,0.0,3.44,19.24,-104.57,Mon Dec  9 23:27:44 2019
presidencia roque saenz pena,70.59,53.0,0.0,5.06,-26.79,-60.44,Mon Dec  9 23:29:27 2019
swan river,-16.58,90.0,0.0,8.1,52.11,-101.27,Mon Dec  9 23:29:28 2019
nioro,73.15,13.0,100.0,8.14,13.79,-15.05,Mon Dec  9 23:29:28 2019
lawang,85.71,49.0,39.0,4.12,-7.83,112.7,Mon Dec  9 23:29:28 2019
patacamaya,46.31,85.0,100.0,6.13,-17.23,-67.92,Mon Dec  9 23:29:28 2019
seddon,61.48,55.0,58.0,16.11,-37.81,144.89,Mon Dec  9 23:29:28 2019
bartlesville,29.23,58.0,1.0,3.36,36.75,-95.98,Mon Dec  9 23:29:29 2019
mount vernon,52.5,87.0,75.0,5.82,38.73,-77.1,Mon Dec  9 23:29:29 2019
savannakhet,78.8,36.0,20.0,6.93,16.57,104.76,Mon Dec  9 23:29:29 2019
lapeer,37.18,76.0,90.0,11.41,43.05,-83.32,Mon Dec  9 23:28:36 2019
gampaha,91.13,55.0,30.0,2.08,7.09,80.0,Mon Dec  9 23:29:29 2019
jefferson city,21.61,62.0,1.0,11.41,38.58,-92.17,Mon Dec  9 23:25:38 2019
teguldet,28.98,93.0,100.0,9.42,57.31,88.17,Mon Dec  9 23:29:30 2019
ahuimanu,72.75,78.0,20.0,3.69,21.44,-157.84,Mon Dec  9 23:29:30 2019
freeport,76.6,82.0,20.0,14.36,26.54,-78.7,Mon Dec  9 23:28:21 2019
collie,90.34,7.0,0.0,4.9,-33.36,116.15,Mon Dec  9 23:29:31 2019
batouri,66.34,43.0,5.0,2.28,4.44,14.36,Mon Dec  9 23:29:31 2019
stafford,57.65,93.0,90.0,17.22,39.71,-74.28,Mon Dec  9 23:29:31 2019
borama,57.65,93.0,90.0,17.22,39.71,-74.28,Mon Dec  9 23:29:31 2019
panguna,77.05,87.0,52.0,3.11,-6.32,155.48,Mon Dec  9 23:29:32 2019
metro,87.85,58.0,79.0,4.32,-5.11,105.31,Mon Dec  9 23:29:32 2019
madera,43.63,93.0,20.0,3.36,36.96,-120.06,Mon Dec  9 23:29:32 2019
macau,77.7,78.0,48.0,13.13,-5.11,-36.64,Mon Dec  9 23:29:32 2019
cefalu,47.75,78.0,82.0,11.01,38.04,14.02,Mon Dec  9 23:29:32 2019
hella,67.71,18.0,0.0,4.36,10.47,-3.27,Mon Dec  9 23:29:33 2019
nago,31.86,100.0,59.0,2.24,45.88,10.89,Mon Dec  9 23:29:33 2019
karabuk,39.2,86.0,0.0,2.24,41.2,32.63,Mon Dec  9 23:29:33 2019
windham,52.25,93.0,90.0,11.41,42.8,-71.3,Mon Dec  9 23:29:33 2019
galgani,52.25,93.0,90.0,11.41,42.8,-71.3,Mon Dec  9 23:29:33 2019
pyinmana,77.86,44.0,0.0,2.39,19.74,96.21,Mon Dec  9 23:29:34 2019
mtwara,84.2,83.0,75.0,11.41,-10.28,40.18,Mon Dec  9 23:29:34 2019
darab,57.72,65.0,67.0,1.25,28.75,54.55,Mon Dec  9 23:29:34 2019
neya,35.69,92.0,100.0,10.87,58.29,43.89,Mon Dec  9 23:29:34 2019
alotau,35.69,92.0,100.0,10.87,58.29,43.89,Mon Dec  9 23:29:34 2019
pita,66.92,21.0,99.0,4.09,11.06,-12.4,Mon Dec  9 23:29:35 2019
ardalstangen,9.9,85.0,20.0,17.22,61.24,7.7,Mon Dec  9 23:29:35 2019
lahij,84.16,62.0,0.0,15.43,13.06,44.88,Mon Dec  9 23:29:35 2019
paranagua,84.16,62.0,0.0,15.43,13.06,44.88,Mon Dec  9 23:29:35 2019
conceicao da barra,78.53,84.0,4.0,17.67,-18.59,-39.73,Mon Dec  9 23:29:36 2019
anju,43.27,77.0,26.0,4.9,39.62,125.66,Mon Dec  9 23:29:36 2019
punta de bombon,63.23,83.0,87.0,5.37,-17.17,-71.79,Mon Dec  9 23:29:36 2019
groningen,35.92,79.0,90.0,5.82,53.22,6.57,Mon Dec  9 23:25:10 2019
calvinia,71.6,60.0,20.0,5.82,-31.47,19.78,Mon Dec  9 23:29:37 2019
naliya,80.11,22.0,0.0,9.6,23.26,68.83,Mon Dec  9 23:29:37 2019
novobiryusinskiy,13.05,94.0,100.0,6.71,56.96,97.71,Mon Dec  9 23:29:37 2019
san pedro de macoris,75.27,94.0,20.0,4.7,18.46,-69.3,Mon Dec  9 23:29:37 2019
manzil jamil,75.27,94.0,20.0,4.7,18.46,-69.3,Mon Dec  9 23:29:37 2019
azul,75.99,44.0,0.0,1.99,-36.78,-59.86,Mon Dec  9 23:29:38 2019
vastervik,75.99,44.0,0.0,1.99,-36.78,-59.86,Mon Dec  9 23:29:38 2019
port blair,84.2,62.0,40.0,11.41,11.67,92.75,Mon Dec  9 23:29:38 2019
nowogard,34.41,86.0,20.0,11.41,53.67,15.12,Mon Dec  9 23:29:38 2019
veraval,34.63,90.0,50.0,8.05,49.65,0.71,Mon Dec  9 23:29:38 2019
roquebrune-cap-martin,48.9,34.0,19.0,12.75,43.76,7.46,Mon Dec  9 23:29:39 2019
morondava,93.92,40.0,100.0,4.94,-20.3,44.28,Mon Dec  9 23:29:39 2019
virginia beach,63.61,82.0,90.0,13.87,36.85,-75.98,Mon Dec  9 23:29:39 2019
shillong,73.04,68.0,40.0,1.12,25.58,91.88,Mon Dec  9 23:29:39 2019
thaba-tseka,48.78,91.0,100.0,0.63,-29.52,28.61,Mon Dec  9 23:29:39 2019
kieta,84.56,65.0,0.0,4.83,-6.22,155.63,Mon Dec  9 23:29:40 2019
camabatela,62.1,95.0,100.0,4.25,-8.19,15.37,Mon Dec  9 23:29:40 2019
konde,62.1,95.0,100.0,4.25,-8.19,15.37,Mon Dec  9 23:29:40 2019
franklin,58.08,82.0,90.0,14.99,35.93,-86.87,Mon Dec  9 23:29:40 2019
borogontsy,-35.52,96.0,36.0,1.23,62.67,131.17,Mon Dec  9 23:29:40 2019
midland,37.53,86.0,90.0,13.87,32.0,-102.08,Mon Dec  9 23:25:50 2019
kerteh,37.53,86.0,90.0,13.87,32.0,-102.08,Mon Dec  9 23:25:50 2019
camacupa,64.42,88.0,70.0,3.09,-12.02,17.48,Mon Dec  9 23:29:41 2019
tampere,25.14,85.0,75.0,4.7,61.5,23.76,Mon Dec  9 23:29:41 2019
tecpan,54.12,88.0,75.0,9.17,14.76,-90.99,Mon Dec  9 23:29:42 2019
katobu,85.89,60.0,80.0,4.41,-4.94,122.53,Mon Dec  9 23:29:42 2019
tsogni,80.08,78.0,100.0,10.18,-2.79,10.1,Mon Dec  9 23:29:42 2019
daru,86.54,62.0,45.0,9.57,-9.07,143.21,Mon Dec  9 23:29:42 2019
sarakhs,55.4,76.0,10.0,6.93,36.54,61.16,Mon Dec  9 23:29:42 2019
ulladulla,67.82,64.0,75.0,14.99,-35.36,150.48,Mon Dec  9 23:29:43 2019
da nang,67.82,64.0,75.0,14.99,-35.36,150.48,Mon Dec  9 23:29:43 2019
tema,80.6,88.0,20.0,6.93,5.66,-0.01,Mon Dec  9 23:29:43 2019
lansing,33.48,74.0,90.0,16.11,42.73,-84.56,Mon Dec  9 23:28:22 2019
kaitong,19.11,53.0,100.0,3.15,44.81,123.15,Mon Dec  9 23:29:43 2019
santa maria,67.68,94.0,75.0,2.24,-16.02,-48.01,Mon Dec  9 23:29:44 2019
kasungu,74.97,72.0,100.0,5.44,-13.04,33.48,Mon Dec  9 23:29:44 2019
samfya,65.35,98.0,100.0,3.69,-11.37,29.56,Mon Dec  9 23:29:44 2019
visimo-utkinsk,65.35,98.0,100.0,3.69,-11.37,29.56,Mon Dec  9 23:29:44 2019
gobabis,69.44,42.0,4.0,4.65,-22.45,18.97,Mon Dec  9 23:29:45 2019
cheyenne,23.34,62.0,90.0,3.36,41.14,-104.82,Mon Dec  9 23:25:01 2019
voh,75.78,81.0,66.0,19.82,-20.95,164.69,Mon Dec  9 23:29:45 2019
ye,75.78,81.0,66.0,19.82,-20.95,164.69,Mon Dec  9 23:29:45 2019
kouango,73.47,38.0,36.0,1.99,4.99,19.98,Mon Dec  9 23:29:45 2019
aktash,73.47,38.0,36.0,1.99,4.99,19.98,Mon Dec  9 23:29:45 2019
anar darreh,73.47,38.0,36.0,1.99,4.99,19.98,Mon Dec  9 23:29:45 2019
sechura,68.29,89.0,100.0,10.83,-5.56,-80.82,Mon Dec  9 23:29:46 2019
mundo nuevo,51.8,93.0,75.0,1.07,-32.72,-71.41,Mon Dec  9 23:29:46 2019
boundiali,69.94,57.0,0.0,1.19,9.53,-6.48,Mon Dec  9 23:29:47 2019
semey,12.2,85.0,0.0,6.78,50.41,80.25,Mon Dec  9 23:29:47 2019
bahia honda,71.82,86.0,0.0,4.16,22.9,-83.16,Mon Dec  9 23:29:47 2019
kasongo-lunda,68.13,89.0,66.0,0.94,-6.48,16.82,Mon Dec  9 23:29:47 2019
karakendzha,68.13,89.0,66.0,0.94,-6.48,16.82,Mon Dec  9 23:29:47 2019
tullahoma,59.95,87.0,90.0,8.25,35.36,-86.21,Mon Dec  9 23:29:48 2019
rabo de peixe,66.2,88.0,75.0,16.11,37.8,-25.58,Mon Dec  9 23:29:48 2019
vuktyl,34.2,99.0,100.0,14.14,63.86,57.31,Mon Dec  9 23:29:48 2019
east brainerd,56.75,93.0,90.0,3.36,35.0,-85.15,Mon Dec  9 23:29:48 2019
antofagasta,64.4,72.0,90.0,4.7,-23.65,-70.4,Mon Dec  9 23:29:48 2019
berea,54.72,93.0,90.0,18.34,37.57,-84.3,Mon Dec  9 23:29:49 2019
newry,50.59,93.0,90.0,17.22,54.18,-6.34,Mon Dec  9 23:29:40 2019
llanes,44.42,10.0,100.0,8.84,43.42,-4.75,Mon Dec  9 23:29:49 2019
tete,82.4,74.0,90.0,6.93,-16.16,33.59,Mon Dec  9 23:29:49 2019
puri,93.15,44.0,79.0,5.17,-7.54,112.45,Mon Dec  9 23:29:49 2019
santa rosa,80.98,14.0,42.0,10.54,-36.62,-64.29,Mon Dec  9 23:29:50 2019
vryburg,69.87,63.0,63.0,6.49,-26.96,24.73,Mon Dec  9 23:29:50 2019
bahia blanca,71.98,21.0,47.0,11.48,-38.72,-62.27,Mon Dec  9 23:25:19 2019
mokhsogollokh,-33.75,97.0,80.0,0.76,61.4,128.95,Mon Dec  9 23:29:50 2019
malabo,74.53,68.0,66.0,4.0,1.56,30.43,Mon Dec  9 23:29:51 2019
chyhyryn,36.88,94.0,84.0,10.98,49.08,32.67,Mon Dec  9 23:29:51 2019
ilhabela,72.01,85.0,99.0,4.54,-23.78,-45.36,Mon Dec  9 23:29:51 2019
batamshinskiy,21.2,92.0,75.0,2.24,50.56,58.27,Mon Dec  9 23:29:51 2019
timmins,-4.0,76.0,90.0,10.29,48.48,-81.33,Mon Dec  9 23:29:51 2019
phan rang,-4.0,76.0,90.0,10.29,48.48,-81.33,Mon Dec  9 23:29:51 2019
makat,33.13,69.0,99.0,8.37,47.65,53.35,Mon Dec  9 23:29:52 2019
sri aman,82.4,88.0,75.0,3.36,1.24,111.46,Mon Dec  9 23:29:52 2019
benicarlo,48.0,49.0,39.0,5.99,40.42,0.43,Mon Dec  9 23:29:52 2019
bubaque,80.96,51.0,98.0,11.63,11.28,-15.83,Mon Dec  9 23:29:52 2019
cobija,75.09,80.0,96.0,2.1,-11.02,-68.77,Mon Dec  9 23:29:53 2019
nara,56.62,47.0,20.0,2.24,34.68,135.8,Mon Dec  9 23:29:53 2019
teodoro sampaio,67.77,95.0,100.0,3.42,-22.53,-52.17,Mon Dec  9 23:28:48 2019
oshikango,75.2,41.0,26.0,4.83,-17.39,15.89,Mon Dec  9 23:29:53 2019
dawei,77.43,50.0,0.0,4.47,14.07,98.19,Mon Dec  9 23:29:53 2019
skibbereen,53.6,93.0,90.0,31.09,51.55,-9.27,Mon Dec  9 23:29:54 2019
rosarito,69.8,94.0,40.0,2.24,4.91,-75.23,Mon Dec  9 23:29:54 2019
barabinsk,23.45,95.0,99.0,9.91,55.35,78.35,Mon Dec  9 23:29:54 2019
heihe,-0.4,54.0,0.0,4.47,50.24,127.51,Mon Dec  9 23:29:54 2019
gualeguay,72.57,51.0,0.0,8.84,-33.15,-59.31,Mon Dec  9 23:29:54 2019
kaohsiung,77.41,34.0,20.0,10.29,22.62,120.31,Mon Dec  9 23:29:55 2019
damavand,48.2,42.0,0.0,4.7,35.72,52.07,Mon Dec  9 23:29:55 2019
mullaitivu,48.2,42.0,0.0,4.7,35.72,52.07,Mon Dec  9 23:29:55 2019
san juan,81.39,19.0,0.0,14.61,-31.54,-68.53,Mon Dec  9 23:29:55 2019
bemidji,-7.92,76.0,90.0,7.52,47.48,-94.89,Mon Dec  9 23:29:55 2019
kilifi,82.4,83.0,75.0,8.05,-3.63,39.85,Mon Dec  9 23:29:56 2019
wewak,82.83,70.0,52.0,6.31,-3.55,143.63,Mon Dec  9 23:29:56 2019
sari,55.4,76.0,20.0,2.24,36.57,53.06,Mon Dec  9 23:29:56 2019
izumo,59.97,51.0,75.0,5.82,35.37,132.75,Mon Dec  9 23:29:56 2019
srandakan,87.26,61.0,79.0,9.6,-7.94,110.25,Mon Dec  9 23:29:57 2019
kousseri,87.26,61.0,79.0,9.6,-7.94,110.25,Mon Dec  9 23:29:57 2019
sao miguel do araguaia,72.03,97.0,100.0,0.74,-13.28,-50.16,Mon Dec  9 23:29:57 2019
okha,0.75,91.0,100.0,4.61,53.59,142.95,Mon Dec  9 23:29:57 2019
venado tuerto,71.01,55.0,0.0,15.55,-33.75,-61.97,Mon Dec  9 23:29:57 2019
micheweni,83.8,78.0,100.0,15.61,-4.97,39.83,Mon Dec  9 23:29:58 2019
lamar,19.4,67.0,1.0,3.36,38.09,-102.62,Mon Dec  9 23:29:58 2019
ruteng,81.28,65.0,10.0,5.03,-8.61,120.46,Mon Dec  9 23:29:58 2019
mwene-ditu,65.91,99.0,100.0,2.95,-7.01,23.45,Mon Dec  9 23:29:58 2019
karasuyama,57.13,76.0,75.0,2.24,36.65,140.15,Mon Dec  9 23:29:59 2019
stoyba,57.13,76.0,75.0,2.24,36.65,140.15,Mon Dec  9 23:29:59 2019
yadrin,34.3,94.0,100.0,10.58,55.94,46.2,Mon Dec  9 23:29:59 2019
piranhas,69.76,96.0,100.0,1.05,-16.43,-51.82,Mon Dec  9 23:29:59 2019
achisay,69.76,96.0,100.0,1.05,-16.43,-51.82,Mon Dec  9 23:29:59 2019
copiapo,59.0,72.0,0.0,3.36,-27.37,-70.33,Mon Dec  9 23:30:00 2019
porto velho,78.8,94.0,40.0,3.36,-8.75,-63.87,Mon Dec  9 23:30:00 2019
oga,27.77,63.0,90.0,8.05,46.46,10.35,Mon Dec  9 23:30:00 2019
jiangyou,47.52,61.0,3.0,3.74,31.78,104.73,Mon Dec  9 23:30:01 2019
nanae,41.0,75.0,40.0,2.24,41.94,140.7,Mon Dec  9 23:30:01 2019
vaiano,41.4,81.0,3.0,4.7,43.97,11.13,Mon Dec  9 23:30:01 2019
angra,41.4,81.0,3.0,4.7,43.97,11.13,Mon Dec  9 23:30:01 2019
la reforma,66.29,95.0,6.0,1.99,25.08,-108.06,Mon Dec  9 23:30:02 2019
dicabisagan,74.5,75.0,1.0,11.52,17.08,122.42,Mon Dec  9 23:30:03 2019
simpang,82.54,80.0,76.0,2.98,4.36,96.17,Mon Dec  9 23:30:03 2019
san felipe,59.0,99.0,0.0,0.45,-32.75,-70.73,Mon Dec  9 23:30:04 2019
bullhead city,53.11,44.0,1.0,16.11,35.15,-114.57,Mon Dec  9 23:30:04 2019
mattru,80.55,83.0,36.0,3.11,7.62,-11.83,Mon Dec  9 23:30:04 2019
hvammstangi,80.55,83.0,36.0,3.11,7.62,-11.83,Mon Dec  9 23:30:04 2019
muisne,75.2,89.0,99.0,11.23,0.61,-80.02,Mon Dec  9 23:30:05 2019
horqueta,68.88,98.0,42.0,1.9,-23.34,-57.05,Mon Dec  9 23:30:05 2019
jacareacanga,71.1,98.0,100.0,1.57,-6.22,-57.76,Mon Dec  9 23:30:06 2019
hovd,30.13,79.0,75.0,10.29,63.83,10.7,Mon Dec  9 23:30:06 2019
tombouctou,74.41,16.0,71.0,14.9,16.77,-3.01,Mon Dec  9 23:30:06 2019
scarborough,39.33,86.0,100.0,13.87,54.28,-0.41,Mon Dec  9 23:30:07 2019
oswego,24.8,62.0,1.0,3.36,37.17,-95.11,Mon Dec  9 23:30:07 2019
awbari,57.06,54.0,0.0,6.91,26.59,12.77,Mon Dec  9 23:30:07 2019
balaghat,81.66,32.0,0.0,2.75,21.81,80.19,Mon Dec  9 23:30:07 2019
salinas,50.04,100.0,1.0,2.08,36.67,-121.66,Mon Dec  9 23:30:07 2019
oussouye,69.78,60.0,100.0,9.17,12.49,-16.54,Mon Dec  9 23:30:08 2019
savannah bight,80.22,79.0,5.0,14.25,16.45,-85.85,Mon Dec  9 23:30:08 2019
general bravo,68.77,89.0,0.0,3.67,25.79,-99.18,Mon Dec  9 23:30:08 2019
baracoa,80.76,78.0,19.0,19.51,20.35,-74.5,Mon Dec  9 23:30:08 2019
kiunga,81.36,77.0,100.0,2.15,-6.12,141.3,Mon Dec  9 23:30:09 2019
chala,64.4,88.0,40.0,1.9,-7.6,31.27,Mon Dec  9 23:30:09 2019
fare,80.37,76.0,100.0,11.07,-16.7,-151.02,Mon Dec  9 23:30:09 2019
cumaribo,80.37,76.0,100.0,11.07,-16.7,-151.02,Mon Dec  9 23:30:09 2019
ituni,80.37,76.0,100.0,11.07,-16.7,-151.02,Mon Dec  9 23:30:09 2019
voznesenye,38.23,89.0,100.0,13.76,61.02,35.48,Mon Dec  9 23:30:10 2019
labutta,38.23,89.0,100.0,13.76,61.02,35.48,Mon Dec  9 23:30:10 2019
breyten,52.81,97.0,100.0,6.08,-26.3,29.99,Mon Dec  9 23:30:10 2019
cumberland,54.27,93.0,90.0,11.41,41.97,-71.43,Mon Dec  9 23:28:35 2019
mahanoro,79.9,74.0,94.0,4.52,-19.9,48.8,Mon Dec  9 23:30:11 2019
waipawa,57.0,69.0,72.0,4.0,-39.94,176.59,Mon Dec  9 23:30:11 2019
gwadar,75.76,70.0,0.0,12.46,25.12,62.33,Mon Dec  9 23:30:11 2019
shache,42.22,26.0,100.0,2.8,38.42,77.24,Mon Dec  9 23:30:11 2019
ushibuka,59.74,53.0,100.0,5.06,32.19,130.02,Mon Dec  9 23:30:12 2019
toamasina,86.0,79.0,20.0,8.05,-18.17,49.38,Mon Dec  9 23:30:12 2019
esteli,65.01,89.0,100.0,6.82,13.09,-86.35,Mon Dec  9 23:30:12 2019
verkhoyansk,-32.82,93.0,25.0,1.3,67.55,133.39,Mon Dec  9 23:30:13 2019
libreville,77.0,94.0,20.0,4.7,0.39,9.45,Mon Dec  9 23:29:12 2019
altagracia de orituco,65.52,98.0,92.0,3.06,9.86,-66.38,Mon Dec  9 23:30:14 2019
klyuchi,22.1,88.0,46.0,4.5,52.25,79.17,Mon Dec  9 23:30:14 2019
ust-kut,-5.21,97.0,98.0,4.25,56.78,105.75,Mon Dec  9 23:30:14 2019
honiara,84.2,83.0,90.0,3.4,-9.43,159.96,Mon Dec  9 23:29:52 2019
beltinci,33.48,100.0,44.0,2.24,46.6,16.24,Mon Dec  9 23:30:15 2019
sainte-suzanne,34.36,100.0,90.0,3.36,47.51,6.77,Mon Dec  9 23:30:15 2019
catamarca,34.36,100.0,90.0,3.36,47.51,6.77,Mon Dec  9 23:30:15 2019
safwah,34.36,100.0,90.0,3.36,47.51,6.77,Mon Dec  9 23:30:15 2019
otorohanga,64.44,55.0,94.0,7.0,-38.18,175.2,Mon Dec  9 23:30:15 2019
vanavara,0.01,96.0,100.0,7.83,60.35,102.28,Mon Dec  9 23:30:16 2019
miri,79.68,14.0,51.0,7.65,10.31,9.75,Mon Dec  9 23:30:16 2019
ratnagiri,90.99,38.0,14.0,4.23,16.98,73.3,Mon Dec  9 23:30:16 2019
monastyrshchina,34.43,98.0,100.0,7.63,54.35,31.84,Mon Dec  9 23:30:16 2019
wahiawa,72.75,94.0,1.0,3.69,21.5,-158.02,Mon Dec  9 23:28:10 2019
lasem,87.4,64.0,92.0,8.57,-6.99,112.52,Mon Dec  9 23:30:17 2019
chaozhou,73.4,43.0,0.0,6.71,23.66,116.62,Mon Dec  9 23:30:17 2019
calais,36.79,80.0,75.0,9.17,50.95,1.87,Mon Dec  9 23:30:17 2019
jaque,36.79,80.0,75.0,9.17,50.95,1.87,Mon Dec  9 23:30:17 2019
fort saint john,36.79,80.0,75.0,9.17,50.95,1.87,Mon Dec  9 23:30:17 2019
yaan,86.14,43.0,4.0,6.33,7.38,8.57,Mon Dec  9 23:30:18 2019
buin,55.4,71.0,0.0,3.36,-33.73,-70.74,Mon Dec  9 23:30:18 2019
